<?xml version='1.0' encoding='UTF-8'?>
<kml xmlns="http://www.opengis.net/kml/2.2">
  <Document>
    <name>Bus 45 - 45</name>
    <description>RATP</description>
    <Style id="line_style">
      <LineStyle>
        <color>ffB482FF</color>
        <width>3</width>
      </LineStyle>
    </Style>
    <Style id="stop_style">
      <IconStyle>
        <color>ffB482FF</color>
        <scale>0.6</scale>
        <Icon>
          <href>https://maps.google.com/mapfiles/kml/shapes/bus.png</href>
        </Icon>
      </IconStyle>
    </Style>
    <Folder>
      <name>Tracé</name>
      <Placemark>
        <name>45</name>
        <styleUrl>#line_style</styleUrl>
        <LineString>
          <tessellate>1</tessellate>
          <coordinates>2.37302,48.91061,0 2.373021,48.910267,0 2.372985,48.908676,0 2.372977,48.907997,0 2.372965,48.907738,0 2.372942,48.906754,0 2.372942,48.906754,0 2.37293,48.906548,0 2.372932,48.906456,0 2.375105,48.906284,0 2.375351,48.906246,0 2.373217,48.904404,0 2.37335,48.904358,0 2.374266,48.904186,0 2.374266,48.904186,0 2.374984,48.904053,0 2.375094,48.904022,0 2.375046,48.903965,0 2.374912,48.903942,0 2.374343,48.903351,0 2.373851,48.902863,0 2.373345,48.90234,0 2.373284,48.902233,0 2.372772,48.90189,0 2.372446,48.901657,0 2.372446,48.901657,0 2.371714,48.901134,0 2.371408,48.901093,0 2.371287,48.901154,0 2.371167,48.901184,0 2.371042,48.901203,0 2.370844,48.901203,0 2.370724,48.90118,0 2.370594,48.901127,0 2.370444,48.901031,0 2.370381,48.900986,0 2.370323,48.900928,0 2.370319,48.900753,0 2.370324,48.900616,0 2.370351,48.90049,0 2.370252,48.900375,0 2.370263,48.900108,0 2.370263,48.900108,0 2.370336,48.898724,0 2.370504,48.89864,0 2.370518,48.898285,0 2.370518,48.898285,0 2.370627,48.896397,0 2.370643,48.896362,0 2.371,48.896065,0 2.371,48.896065,0 2.37136,48.895813,0 2.371824,48.895454,0 2.371945,48.895279,0 2.37178,48.895222,0 2.371496,48.895039,0 2.371496,48.895039,0 2.370838,48.894619,0 2.370768,48.894577,0 2.370522,48.894478,0 2.370355,48.894367,0 2.370165,48.894176,0 2.370062,48.894062,0 2.36955,48.892899,0 2.369462,48.892681,0 2.369462,48.892681,0 2.368818,48.891174,0 2.368207,48.889843,0 2.368207,48.889843,0 2.368151,48.889725,0 2.368058,48.889633,0 2.367596,48.888702,0 2.367299,48.887974,0 2.367175,48.887604,0 2.367059,48.887325,0 2.36696,48.887119,0 2.36696,48.887119,0 2.366887,48.886925,0 2.366809,48.886795,0 2.366731,48.886608,0 2.366302,48.886112,0 2.366242,48.886013,0 2.365871,48.88562,0 2.365818,48.885544,0 2.365498,48.885204,0 2.365235,48.884907,0 2.364804,48.884464,0 2.364377,48.884495,0 2.364377,48.884495,0 2.364208,48.884502,0 2.36108,48.884514,0 2.36108,48.884514,0 2.359245,48.884533,0 2.359233,48.88446,0 2.359236,48.884388,0 2.359258,48.884296,0 2.35926,48.884171,0 2.359281,48.884029,0 2.359087,48.882957,0 2.359034,48.882854,0 2.35888,48.882603,0 2.35888,48.882603,0 2.35854,48.882038,0 2.357985,48.881046,0 2.357985,48.881046,0 2.3577,48.880512,0 2.357665,48.880428,0 2.357188,48.879524,0 2.357028,48.879528,0 2.356096,48.879704,0 2.355935,48.8797,0 2.354853,48.879826,0 2.354596,48.879871,0 2.354472,48.879917,0 2.353649,48.880173,0 2.353479,48.880234,0 2.352731,48.880428,0 2.352521,48.88047,0 2.352304,48.880493,0 2.352162,48.880466,0 2.351337,48.880222,0 2.351337,48.880222,0 2.348005,48.87923,0 2.348005,48.87923,0 2.345023,48.878345,0 2.344466,48.878082,0 2.344466,48.878082,0 2.341924,48.876862,0 2.34146,48.876629,0 2.34146,48.876629,0 2.33987,48.875889,0 2.339689,48.875454,0 2.339689,48.875454,0 2.339513,48.875069,0 2.339344,48.87466,0 2.339329,48.874577,0 2.339134,48.874191,0 2.338725,48.873219,0 2.3384,48.872475,0 2.3384,48.872475,0 2.3383,48.872242,0 2.333766,48.872864,0 2.333766,48.872864,0 2.333257,48.87294,0 2.333017,48.872986,0 2.331395,48.873199,0 2.331274,48.873173,0 2.331193,48.873146,0 2.331149,48.873127,0 2.331058,48.873043,0 2.331083,48.872944,0 2.331092,48.872829,0 2.33095,48.87254,0 2.33095,48.87254,0 2.329981,48.870525,0 2.329983,48.870464,0 2.330045,48.870274,0 2.329785,48.87022,0 2.329453,48.870167,0 2.329453,48.870167,0 2.328232,48.869961,0 2.32799,48.869926,0 2.32587,48.869576,0 2.325796,48.869606,0 2.325266,48.869526,0 2.325221,48.869522,0 2.325084,48.869553,0 2.32508,48.869583,0 2.325039,48.869667,0 2.325038,48.869705,0 2.325087,48.869793,0 2.325399,48.870213,0 2.325399,48.870213,0 2.3256,48.87048,0 2.32562,48.870552,0 2.325613,48.87059,0 2.325593,48.870632,0 2.32554,48.870667,0 2.325239,48.87075,0 2.325149,48.870758,0 2.32493,48.870823,0 2.324845,48.870892,0 2.324508,48.870975,0 2.324412,48.870964,0 2.324358,48.870949,0 2.324301,48.870914,0 2.324233,48.870831,0 2.323759,48.87019,0 2.323759,48.87019,0 2.323665,48.870079,0 2.323611,48.870041,0 2.323348,48.869968,0 2.323324,48.869923,0 2.323323,48.869869,0 2.323513,48.869602,0 2.323699,48.869358,0 2.323897,48.869255,0 2.323268,48.868382,0 2.322089,48.866787,0 2.321985,48.866669,0 2.321213,48.866905,0 2.321088,48.866909,0 2.321009,48.866894,0</coordinates>
        </LineString>
      </Placemark>
      <Placemark>
        <name>45</name>
        <styleUrl>#line_style</styleUrl>
        <LineString>
          <tessellate>1</tessellate>
          <coordinates>2.321009,48.866894,0 2.320888,48.866871,0 2.320615,48.866764,0 2.320545,48.866722,0 2.320489,48.866665,0 2.320383,48.866531,0 2.320114,48.866138,0 2.319915,48.865864,0 2.320013,48.865757,0 2.320769,48.865528,0 2.321189,48.866089,0 2.321335,48.866238,0 2.321524,48.866375,0 2.321569,48.866386,0 2.321809,48.866528,0 2.321985,48.866669,0 2.322089,48.866787,0 2.32249,48.867332,0 2.32249,48.867332,0 2.323268,48.868382,0 2.323897,48.869255,0 2.324084,48.869209,0 2.324379,48.869251,0 2.325788,48.869514,0 2.325788,48.869514,0 2.325828,48.869522,0 2.32587,48.869576,0 2.329027,48.87009,0 2.329027,48.87009,0 2.329785,48.87022,0 2.330045,48.870274,0 2.331557,48.870537,0 2.33239,48.870678,0 2.332548,48.870693,0 2.332342,48.871155,0 2.332623,48.871784,0 2.332623,48.871784,0 2.333057,48.872772,0 2.333057,48.872795,0 2.333136,48.872875,0 2.333257,48.87294,0 2.333264,48.873043,0 2.333329,48.873077,0 2.333707,48.87318,0 2.333707,48.87318,0 2.334404,48.873356,0 2.336312,48.873856,0 2.336762,48.873981,0 2.336762,48.873981,0 2.337074,48.874054,0 2.339014,48.874569,0 2.339014,48.874569,0 2.34322,48.875679,0 2.34322,48.875679,0 2.346611,48.876541,0 2.348102,48.876938,0 2.348102,48.876938,0 2.349234,48.877243,0 2.34988,48.877407,0 2.35044,48.877563,0 2.353291,48.878307,0 2.353291,48.878307,0 2.354076,48.878513,0 2.354837,48.8787,0 2.354837,48.8787,0 2.356863,48.879238,0 2.357071,48.879284,0 2.357188,48.879524,0 2.357879,48.880848,0 2.357879,48.880848,0 2.358419,48.881821,0 2.358419,48.881821,0 2.35854,48.882038,0 2.359034,48.882854,0 2.359087,48.882957,0 2.359227,48.883724,0 2.359227,48.883724,0 2.359281,48.884029,0 2.35934,48.884083,0 2.359372,48.884151,0 2.359385,48.884293,0 2.361814,48.884285,0 2.361814,48.884285,0 2.364435,48.884281,0 2.365247,48.884224,0 2.365247,48.884224,0 2.366324,48.884159,0 2.366822,48.884136,0 2.366855,48.884335,0 2.367618,48.885059,0 2.367786,48.88517,0 2.368908,48.886189,0 2.368908,48.886189,0 2.369157,48.886425,0 2.369225,48.886421,0 2.36929,48.88644,0 2.369341,48.886475,0 2.369365,48.886524,0 2.369348,48.886578,0 2.369303,48.886612,0 2.369783,48.88707,0 2.3699,48.887161,0 2.370149,48.887394,0 2.370929,48.888657,0 2.370958,48.888741,0 2.371303,48.889305,0 2.37144,48.88958,0 2.37144,48.88958,0 2.371763,48.890259,0 2.372365,48.891628,0 2.372365,48.891628,0 2.372554,48.892052,0 2.372747,48.892448,0 2.373214,48.893482,0 2.373214,48.893482,0 2.373275,48.893642,0 2.373325,48.893749,0 2.37338,48.893841,0 2.373357,48.893894,0 2.373334,48.893932,0 2.372321,48.895008,0 2.372321,48.895008,0 2.372153,48.895203,0 2.372076,48.895393,0 2.372051,48.895424,0 2.371496,48.895901,0 2.371311,48.896,0 2.371096,48.896156,0 2.371096,48.896156,0 2.370799,48.896397,0 2.370767,48.896446,0 2.370743,48.896801,0 2.370745,48.896881,0 2.370756,48.896938,0 2.371053,48.897182,0 2.371078,48.897209,0 2.371096,48.897251,0 2.371051,48.898148,0 2.371051,48.898148,0 2.371023,48.898647,0 2.371172,48.898724,0 2.371138,48.899437,0 2.371096,48.90004,0 2.371096,48.90004,0 2.371082,48.900219,0 2.371222,48.900257,0 2.371427,48.90036,0 2.371478,48.900394,0 2.371541,48.900482,0 2.371583,48.900593,0 2.371592,48.900692,0 2.371702,48.900936,0 2.371714,48.901016,0 2.371714,48.901134,0 2.372446,48.901657,0 2.372446,48.901657,0 2.372772,48.90189,0 2.373284,48.902233,0 2.373391,48.902264,0 2.373485,48.902306,0 2.373536,48.902344,0 2.374735,48.903553,0 2.374735,48.903553,0 2.375059,48.903877,0 2.375046,48.903965,0 2.375094,48.904022,0 2.374984,48.904053,0 2.37335,48.904358,0 2.373217,48.904404,0 2.376215,48.906994,0 2.376316,48.907089,0 2.376265,48.907196,0 2.376023,48.907612,0 2.376023,48.907612,0 2.375695,48.9081,0 2.373473,48.911667,0 2.373414,48.911755,0 2.373159,48.911716,0 2.373059,48.911343,0 2.373028,48.910767,0</coordinates>
        </LineString>
      </Placemark>
    </Folder>
    <Folder>
      <name>Arrêts</name>
      <Placemark>
        <name>Crimée - Aubervilliers</name>
        <styleUrl>#stop_style</styleUrl>
        <Point>
          <coordinates>2.3714569234944247,48.89509292177682,0</coordinates>
        </Point>
      </Placemark>
      <Placemark>
        <name>Chapelle - Caillié</name>
        <styleUrl>#stop_style</styleUrl>
        <Point>
          <coordinates>2.3643572003575604,48.88451538212418,0</coordinates>
        </Point>
      </Placemark>
      <Placemark>
        <name>Condorcet</name>
        <styleUrl>#stop_style</styleUrl>
        <Point>
          <coordinates>2.348045130130804,48.87928349650267,0</coordinates>
        </Point>
      </Placemark>
      <Placemark>
        <name>Le Peletier - Haussmann</name>
        <styleUrl>#stop_style</styleUrl>
        <Point>
          <coordinates>2.337974447128822,48.87239326922153,0</coordinates>
        </Point>
      </Placemark>
      <Placemark>
        <name>Capucines - Caumartin</name>
        <styleUrl>#stop_style</styleUrl>
        <Point>
          <coordinates>2.328980089300098,48.86998691111846,0</coordinates>
        </Point>
      </Placemark>
      <Placemark>
        <name>Cadet</name>
        <styleUrl>#stop_style</styleUrl>
        <Point>
          <coordinates>2.3432103153547374,48.8755877821331,0</coordinates>
        </Point>
      </Placemark>
      <Placemark>
        <name>Square Montholon</name>
        <styleUrl>#stop_style</styleUrl>
        <Point>
          <coordinates>2.348007242828276,48.87686408143325,0</coordinates>
        </Point>
      </Placemark>
      <Placemark>
        <name>Mathis</name>
        <styleUrl>#stop_style</styleUrl>
        <Point>
          <coordinates>2.3724001000772907,48.89152757046255,0</coordinates>
        </Point>
      </Placemark>
      <Placemark>
        <name>Porte d'Aubervilliers - Macdonald</name>
        <styleUrl>#stop_style</styleUrl>
        <Point>
          <coordinates>2.371147440494706,48.89813098777176,0</coordinates>
        </Point>
      </Placemark>
      <Placemark>
        <name>Skanderbeg</name>
        <styleUrl>#stop_style</styleUrl>
        <Point>
          <coordinates>2.371206467177742,48.900019858689696,0</coordinates>
        </Point>
      </Placemark>
      <Placemark>
        <name>Rue de la Haie-Coq</name>
        <styleUrl>#stop_style</styleUrl>
        <Point>
          <coordinates>2.3728482608339703,48.90753771176242,0</coordinates>
        </Point>
      </Placemark>
      <Placemark>
        <name>Radiguet</name>
        <styleUrl>#stop_style</styleUrl>
        <Point>
          <coordinates>2.369439248956414,48.89276207141918,0</coordinates>
        </Point>
      </Placemark>
      <Placemark>
        <name>Gare du Nord</name>
        <styleUrl>#stop_style</styleUrl>
        <Point>
          <coordinates>2.357921708015718,48.88111755141605,0</coordinates>
        </Point>
      </Placemark>
      <Placemark>
        <name>Opéra - Scribe</name>
        <styleUrl>#stop_style</styleUrl>
        <Point>
          <coordinates>2.3308552802692994,48.872587511844664,0</coordinates>
        </Point>
      </Placemark>
      <Placemark>
        <name>Saint-Georges - Provence</name>
        <styleUrl>#stop_style</styleUrl>
        <Point>
          <coordinates>2.336673866345972,48.8738879654746,0</coordinates>
        </Point>
      </Placemark>
      <Placemark>
        <name>Le Peletier</name>
        <styleUrl>#stop_style</styleUrl>
        <Point>
          <coordinates>2.3385489252498606,48.874392977287094,0</coordinates>
        </Point>
      </Placemark>
      <Placemark>
        <name>La Fayette - Magenta</name>
        <styleUrl>#stop_style</styleUrl>
        <Point>
          <coordinates>2.354870317905031,48.87867295118285,0</coordinates>
        </Point>
      </Placemark>
      <Placemark>
        <name>France - Asie</name>
        <styleUrl>#stop_style</styleUrl>
        <Point>
          <coordinates>2.3729595375538515,48.910757810889095,0</coordinates>
        </Point>
      </Placemark>
      <Placemark>
        <name>Jardin des Berges</name>
        <styleUrl>#stop_style</styleUrl>
        <Point>
          <coordinates>2.3742400933861534,48.904109630738425,0</coordinates>
        </Point>
      </Placemark>
      <Placemark>
        <name>Évangile - Aubervilliers</name>
        <styleUrl>#stop_style</styleUrl>
        <Point>
          <coordinates>2.3708867701059053,48.8959982387826,0</coordinates>
        </Point>
      </Placemark>
      <Placemark>
        <name>Riquet</name>
        <styleUrl>#stop_style</styleUrl>
        <Point>
          <coordinates>2.368165151678367,48.88985954069725,0</coordinates>
        </Point>
      </Placemark>
      <Placemark>
        <name>Maubeuge - Rochechouart</name>
        <styleUrl>#stop_style</styleUrl>
        <Point>
          <coordinates>2.344446411304005,48.87812169030309,0</coordinates>
        </Point>
      </Placemark>
      <Placemark>
        <name>Chaussée d'Antin</name>
        <styleUrl>#stop_style</styleUrl>
        <Point>
          <coordinates>2.333686364436736,48.872954047136865,0</coordinates>
        </Point>
      </Placemark>
      <Placemark>
        <name>Madeleine</name>
        <styleUrl>#stop_style</styleUrl>
        <Point>
          <coordinates>2.3254200778949814,48.87012878196468,0</coordinates>
        </Point>
      </Placemark>
      <Placemark>
        <name>Place Franz Liszt</name>
        <styleUrl>#stop_style</styleUrl>
        <Point>
          <coordinates>2.3533076363088683,48.87824183322701,0</coordinates>
        </Point>
      </Placemark>
      <Placemark>
        <name>France-Asie</name>
        <styleUrl>#stop_style</styleUrl>
        <Point>
          <coordinates>2.372950661893891,48.91036207016814,0</coordinates>
        </Point>
      </Placemark>
      <Placemark>
        <name>Maroc</name>
        <styleUrl>#stop_style</styleUrl>
        <Point>
          <coordinates>2.366903083445497,48.88710094360217,0</coordinates>
        </Point>
      </Placemark>
      <Placemark>
        <name>Cail - Demarquay</name>
        <styleUrl>#stop_style</styleUrl>
        <Point>
          <coordinates>2.358776066784032,48.88260602490761,0</coordinates>
        </Point>
      </Placemark>
      <Placemark>
        <name>Concorde</name>
        <styleUrl>#stop_style</styleUrl>
        <Point>
          <coordinates>2.321563288632046,48.86688733037713,0</coordinates>
        </Point>
      </Placemark>
      <Placemark>
        <name>Concorde Royale</name>
        <styleUrl>#stop_style</styleUrl>
        <Point>
          <coordinates>2.3225810560868547,48.86724383996729,0</coordinates>
        </Point>
      </Placemark>
      <Placemark>
        <name>Opéra</name>
        <styleUrl>#stop_style</styleUrl>
        <Point>
          <coordinates>2.3326802763278804,48.87167137936684,0</coordinates>
        </Point>
      </Placemark>
      <Placemark>
        <name>Philippe de Girard</name>
        <styleUrl>#stop_style</styleUrl>
        <Point>
          <coordinates>2.361796661823463,48.884258942349305,0</coordinates>
        </Point>
      </Placemark>
      <Placemark>
        <name>Place du Maroc</name>
        <styleUrl>#stop_style</styleUrl>
        <Point>
          <coordinates>2.3689464592791882,48.88615844577324,0</coordinates>
        </Point>
      </Placemark>
      <Placemark>
        <name>Curial - Archereau</name>
        <styleUrl>#stop_style</styleUrl>
        <Point>
          <coordinates>2.371482772762172,48.88956223776574,0</coordinates>
        </Point>
      </Placemark>
      <Placemark>
        <name>Parc du Millénaire</name>
        <styleUrl>#stop_style</styleUrl>
        <Point>
          <coordinates>2.3725232226179296,48.901681500874446,0</coordinates>
        </Point>
      </Placemark>
      <Placemark>
        <name>Quai Lucien Lefranc</name>
        <styleUrl>#stop_style</styleUrl>
        <Point>
          <coordinates>2.3761218532532573,48.907590778738765,0</coordinates>
        </Point>
      </Placemark>
      <Placemark>
        <name>Place de la Chapelle</name>
        <styleUrl>#stop_style</styleUrl>
        <Point>
          <coordinates>2.361097602947602,48.88455199217365,0</coordinates>
        </Point>
      </Placemark>
      <Placemark>
        <name>Magenta - Maubeuge</name>
        <styleUrl>#stop_style</styleUrl>
        <Point>
          <coordinates>2.351332429109297,48.88028162573714,0</coordinates>
        </Point>
      </Placemark>
      <Placemark>
        <name>Châteaudun - Lamartine</name>
        <styleUrl>#stop_style</styleUrl>
        <Point>
          <coordinates>2.3414647810265294,48.87669336932792,0</coordinates>
        </Point>
      </Placemark>
      <Placemark>
        <name>Carrefour de Châteaudun</name>
        <styleUrl>#stop_style</styleUrl>
        <Point>
          <coordinates>2.3395194420926866,48.875270693557624,0</coordinates>
        </Point>
      </Placemark>
      <Placemark>
        <name>Château Landon</name>
        <styleUrl>#stop_style</styleUrl>
        <Point>
          <coordinates>2.3652072190551445,48.884142174357606,0</coordinates>
        </Point>
      </Placemark>
      <Placemark>
        <name>Curial - Crimée</name>
        <styleUrl>#stop_style</styleUrl>
        <Point>
          <coordinates>2.3732770153910643,48.89345670798931,0</coordinates>
        </Point>
      </Placemark>
      <Placemark>
        <name>Crimée - Rosa Parks</name>
        <styleUrl>#stop_style</styleUrl>
        <Point>
          <coordinates>2.372399605956092,48.894962968125036,0</coordinates>
        </Point>
      </Placemark>
    </Folder>
  </Document>
</kml>