<?xml version='1.0' encoding='UTF-8'?>
<kml xmlns="http://www.opengis.net/kml/2.2">
  <Document>
    <name>Bus 26 - 26</name>
    <description>Keolis Argenteuil Boucles de Seine</description>
    <Style id="line_style">
      <LineStyle>
        <color>ff92A000</color>
        <width>3</width>
      </LineStyle>
    </Style>
    <Style id="stop_style">
      <IconStyle>
        <color>ff92A000</color>
        <scale>0.6</scale>
        <Icon>
          <href>https://maps.google.com/mapfiles/kml/shapes/bus.png</href>
        </Icon>
      </IconStyle>
    </Style>
    <Folder>
      <name>Tracé</name>
      <Placemark>
        <name>26</name>
        <styleUrl>#line_style</styleUrl>
        <LineString>
          <tessellate>1</tessellate>
          <coordinates>2.158443,48.937466,0 2.158992,48.93708,0 2.159222,48.936871,0 2.159807,48.936455,0 2.160086,48.936241,0 2.160363,48.936077,0 2.16168,48.935261,0 2.162447,48.934826,0 2.162447,48.934826,0 2.162589,48.934746,0 2.164121,48.934212,0 2.164943,48.933964,0 2.165201,48.933876,0 2.166354,48.933437,0 2.166421,48.933502,0 2.166733,48.93383,0 2.167068,48.933659,0 2.167068,48.933659,0 2.168437,48.932953,0 2.168742,48.932957,0 2.169064,48.932983,0 2.169966,48.933167,0 2.170315,48.933266,0 2.170434,48.933315,0 2.170519,48.933388,0 2.171105,48.934006,0 2.171658,48.933781,0 2.171779,48.933758,0 2.17201,48.933727,0 2.172148,48.933723,0 2.172339,48.933746,0 2.17637,48.934891,0 2.176586,48.934868,0 2.1769,48.934982,0 2.176969,48.935043,0 2.177008,48.935112,0 2.177127,48.935154,0 2.177127,48.935154,0 2.177821,48.935402,0 2.177927,48.935471,0 2.178005,48.935547,0 2.178355,48.936081,0 2.178922,48.936829,0 2.179056,48.937042,0 2.179086,48.937122,0 2.179163,48.937233,0 2.179373,48.937485,0 2.179373,48.937485,0 2.179536,48.937664,0 2.179746,48.938011,0 2.179846,48.938152,0 2.180787,48.939266,0 2.180787,48.939266,0 2.181362,48.939999,0 2.182157,48.940994,0 2.182816,48.941719,0 2.182816,48.941719,0 2.183051,48.941975,0 2.183081,48.94202,0 2.183112,48.942017,0 2.183174,48.942024,0 2.183222,48.942051,0 2.184653,48.941505,0 2.18542,48.941238,0 2.18542,48.941238,0 2.186716,48.940792,0 2.187927,48.940357,0 2.188758,48.940041,0 2.190253,48.939571,0 2.190253,48.939571,0 2.191328,48.939236,0 2.191366,48.939308,0 2.191677,48.939426,0 2.191735,48.939434,0 2.192305,48.939465,0 2.192795,48.939602,0 2.193509,48.939816,0 2.193574,48.93985,0 2.193604,48.939884,0 2.19366,48.939991,0 2.194597,48.940258,0 2.194637,48.940292,0 2.194495,48.94051,0 2.194379,48.940548,0 2.193935,48.940422,0 2.193752,48.940701,0 2.193752,48.940701,0 2.193564,48.940998,0 2.193522,48.941223,0 2.193561,48.941555,0 2.193974,48.942307,0 2.193974,48.942307,0 2.194048,48.94244,0 2.194064,48.942501,0 2.194135,48.942509,0 2.194187,48.942539,0 2.1942,48.942566,0 2.194201,48.942589,0 2.194189,48.942616,0 2.194167,48.942635,0 2.194136,48.94265,0 2.19419,48.942719,0 2.194475,48.943241,0 2.194582,48.943584,0 2.194602,48.943714,0 2.194633,48.944092,0 2.194626,48.944439,0 2.194666,48.944557,0 2.194625,48.94471,0 2.194619,48.944962,0 2.194619,48.944962,0 2.194595,48.945778,0 2.194603,48.946098,0 2.194602,48.946594,0 2.194673,48.946819,0 2.194673,48.946819,0 2.194693,48.94688,0 2.194805,48.947109,0 2.194821,48.947292,0 2.194804,48.947399,0 2.194688,48.947655,0 2.194225,48.948303,0 2.194158,48.948391,0 2.19406,48.948505,0 2.193647,48.949085,0 2.193446,48.949356,0 2.193446,48.949356,0 2.192784,48.950249,0 2.192746,48.950287,0 2.19268,48.950314,0 2.192606,48.950336,0 2.192531,48.950348,0 2.192456,48.950344,0 2.18935,48.949192,0 2.18927,48.949184,0 2.189125,48.949203,0 2.189029,48.949245,0 2.188745,48.949577,0 2.188745,48.949577,0 2.188162,48.950268,0 2.188078,48.950325,0 2.187827,48.950405,0 2.188479,48.9515,0 2.18846,48.951591,0 2.188361,48.951653,0 2.186289,48.952198,0 2.186289,48.952198,0 2.185098,48.952511,0 2.184977,48.952507,0 2.184868,48.952477,0 2.1847,48.952271,0 2.183978,48.952484,0 2.183722,48.952587,0 2.183632,48.952637,0 2.183626,48.952671,0 2.183587,48.952721,0 2.183526,48.952751,0 2.18346,48.952766,0 2.183355,48.952751,0 2.183307,48.952728,0 2.183271,48.952698,0 2.18325,48.952663,0 2.183247,48.952625,0 2.183262,48.952587,0 2.183294,48.952553,0 2.183185,48.952328,0 2.182996,48.952076,0 2.182996,48.952076,0 2.182515,48.951443,0 2.181534,48.950077,0 2.180915,48.949272,0 2.180915,48.949272,0 2.180649,48.948948,0 2.180326,48.948605,0 2.180027,48.948307,0 2.179799,48.948124,0 2.17961,48.947987,0 2.178424,48.947327,0 2.177542,48.946861,0 2.177115,48.946659,0 2.176658,48.946495,0 2.17633,48.946384,0 2.17633,48.946384,0 2.17571,48.946243,0 2.175523,48.946209,0 2.175063,48.946152,0 2.174068,48.946045,0 2.173953,48.945896,0 2.173902,48.945847,0 2.17366,48.945625,0 2.173501,48.945496,0 2.173501,48.945496,0 2.17345,48.945461,0 2.172806,48.944897,0 2.17268,48.944798,0 2.172396,48.944965,0 2.172225,48.944984,0 2.172072,48.944981,0 2.171275,48.944897,0 2.171275,48.944897,0 2.168999,48.94458,0 2.168233,48.944393,0 2.167782,48.944225,0 2.167515,48.944118,0 2.167515,48.944118,0 2.167217,48.944,0 2.166804,48.943851,0 2.166138,48.94363,0 2.165913,48.943787,0 2.165913,48.943787,0 2.165565,48.944023,0 2.165318,48.943863,0 2.165079,48.943687,0 2.164436,48.943214,0 2.164365,48.943153,0 2.163766,48.942757,0 2.163685,48.94273,0 2.163554,48.942638,0 2.163554,48.942638,0 2.163373,48.942516,0 2.163283,48.942493,0 2.163139,48.94244,0 2.163074,48.942448,0 2.163009,48.942444,0 2.162961,48.942429,0 2.162919,48.942406,0 2.162888,48.942379,0 2.162868,48.942345,0 2.162861,48.94231,0 2.162876,48.942261,0 2.162716,48.942093,0 2.161193,48.941139,0 2.161193,48.941139,0 2.160942,48.940979,0 2.160704,48.940849,0 2.159707,48.94017,0 2.159487,48.939987,0 2.158483,48.93924,0 2.158329,48.93911,0 2.158055,48.938908,0 2.157503,48.938442,0 2.157477,48.938389,0 2.157295,48.938251,0 2.157559,48.938103,0 2.15792,48.937885,0 2.157955,48.937832,0</coordinates>
        </LineString>
      </Placemark>
    </Folder>
    <Folder>
      <name>Arrêts</name>
      <Placemark>
        <name>Jolis Monts</name>
        <styleUrl>#stop_style</styleUrl>
        <Point>
          <coordinates>2.1808590527091023,48.93926659064875,0</coordinates>
        </Point>
      </Placemark>
      <Placemark>
        <name>Théâtre</name>
        <styleUrl>#stop_style</styleUrl>
        <Point>
          <coordinates>2.1938745449494923,48.94064982495886,0</coordinates>
        </Point>
      </Placemark>
      <Placemark>
        <name>Jouhaux</name>
        <styleUrl>#stop_style</styleUrl>
        <Point>
          <coordinates>2.193493739411894,48.94936143276866,0</coordinates>
        </Point>
      </Placemark>
      <Placemark>
        <name>Alphonse Allais</name>
        <styleUrl>#stop_style</styleUrl>
        <Point>
          <coordinates>2.185566806884046,48.94113324386045,0</coordinates>
        </Point>
      </Placemark>
      <Placemark>
        <name>Boulevard de Bezons</name>
        <styleUrl>#stop_style</styleUrl>
        <Point>
          <coordinates>2.190206081760731,48.93952795144092,0</coordinates>
        </Point>
      </Placemark>
      <Placemark>
        <name>Flaubert</name>
        <styleUrl>#stop_style</styleUrl>
        <Point>
          <coordinates>2.194708090055038,48.94677064101065,0</coordinates>
        </Point>
      </Placemark>
      <Placemark>
        <name>Vendanges</name>
        <styleUrl>#stop_style</styleUrl>
        <Point>
          <coordinates>2.1763220464274,48.94646586130637,0</coordinates>
        </Point>
      </Placemark>
      <Placemark>
        <name>Suger</name>
        <styleUrl>#stop_style</styleUrl>
        <Point>
          <coordinates>2.167539067257234,48.944156946467096,0</coordinates>
        </Point>
      </Placemark>
      <Placemark>
        <name>Gare de Sartrouville</name>
        <styleUrl>#stop_style</styleUrl>
        <Point>
          <coordinates>2.15839149333711,48.93742923698639,0</coordinates>
        </Point>
      </Placemark>
      <Placemark>
        <name>Convention</name>
        <styleUrl>#stop_style</styleUrl>
        <Point>
          <coordinates>2.1671071848763486,48.933614111494066,0</coordinates>
        </Point>
      </Placemark>
      <Placemark>
        <name>Courteline</name>
        <styleUrl>#stop_style</styleUrl>
        <Point>
          <coordinates>2.179494576525681,48.93749462535623,0</coordinates>
        </Point>
      </Placemark>
      <Placemark>
        <name>Calmette Guérin</name>
        <styleUrl>#stop_style</styleUrl>
        <Point>
          <coordinates>2.188792951679162,48.9496084970425,0</coordinates>
        </Point>
      </Placemark>
      <Placemark>
        <name>La Garenne</name>
        <styleUrl>#stop_style</styleUrl>
        <Point>
          <coordinates>2.180851450650265,48.949284709354245,0</coordinates>
        </Point>
      </Placemark>
      <Placemark>
        <name>Roosevelt</name>
        <styleUrl>#stop_style</styleUrl>
        <Point>
          <coordinates>2.1713083716191837,48.944938474025115,0</coordinates>
        </Point>
      </Placemark>
      <Placemark>
        <name>Masures</name>
        <styleUrl>#stop_style</styleUrl>
        <Point>
          <coordinates>2.1635488024418934,48.94269028914722,0</coordinates>
        </Point>
      </Placemark>
      <Placemark>
        <name>Lamartine</name>
        <styleUrl>#stop_style</styleUrl>
        <Point>
          <coordinates>2.1624613148704444,48.93476882026078,0</coordinates>
        </Point>
      </Placemark>
      <Placemark>
        <name>Paul Bert</name>
        <styleUrl>#stop_style</styleUrl>
        <Point>
          <coordinates>2.1940934982455444,48.942377949351474,0</coordinates>
        </Point>
      </Placemark>
      <Placemark>
        <name>Saint-Exupéry</name>
        <styleUrl>#stop_style</styleUrl>
        <Point>
          <coordinates>2.1946679573109136,48.944953797034415,0</coordinates>
        </Point>
      </Placemark>
      <Placemark>
        <name>Église</name>
        <styleUrl>#stop_style</styleUrl>
        <Point>
          <coordinates>2.173442329551871,48.94553775046358,0</coordinates>
        </Point>
      </Placemark>
      <Placemark>
        <name>Tocqueville</name>
        <styleUrl>#stop_style</styleUrl>
        <Point>
          <coordinates>2.1772243966141263,48.93516785071515,0</coordinates>
        </Point>
      </Placemark>
      <Placemark>
        <name>Grétry</name>
        <styleUrl>#stop_style</styleUrl>
        <Point>
          <coordinates>2.182922416884755,48.94174475651688,0</coordinates>
        </Point>
      </Placemark>
      <Placemark>
        <name>Les Perriers</name>
        <styleUrl>#stop_style</styleUrl>
        <Point>
          <coordinates>2.1862941375394884,48.95223547812471,0</coordinates>
        </Point>
      </Placemark>
      <Placemark>
        <name>Trembleaux</name>
        <styleUrl>#stop_style</styleUrl>
        <Point>
          <coordinates>2.1828556544119997,48.95207719806858,0</coordinates>
        </Point>
      </Placemark>
      <Placemark>
        <name>Temple</name>
        <styleUrl>#stop_style</styleUrl>
        <Point>
          <coordinates>2.166002267927142,48.94378654441783,0</coordinates>
        </Point>
      </Placemark>
      <Placemark>
        <name>Poste</name>
        <styleUrl>#stop_style</styleUrl>
        <Point>
          <coordinates>2.161143207362507,48.94117164492694,0</coordinates>
        </Point>
      </Placemark>
    </Folder>
  </Document>
</kml>