<?xml version='1.0' encoding='UTF-8'?>
<kml xmlns="http://www.opengis.net/kml/2.2">
  <Document>
    <name>Bus 330 - 330</name>
    <description>RATP</description>
    <Style id="line_style">
      <LineStyle>
        <color>ff00BEFF</color>
        <width>3</width>
      </LineStyle>
    </Style>
    <Style id="stop_style">
      <IconStyle>
        <color>ff00BEFF</color>
        <scale>0.6</scale>
        <Icon>
          <href>https://maps.google.com/mapfiles/kml/shapes/bus.png</href>
        </Icon>
      </IconStyle>
    </Style>
    <Folder>
      <name>Tracé</name>
      <Placemark>
        <name>330</name>
        <styleUrl>#line_style</styleUrl>
        <LineString>
          <tessellate>1</tessellate>
          <coordinates>2.403942,48.91449,0 2.404195,48.914726,0 2.404021,48.914757,0 2.403845,48.914619,0 2.403568,48.914371,0 2.403071,48.913868,0 2.402785,48.913532,0 2.400407,48.911339,0 2.400222,48.911236,0 2.399994,48.91103,0 2.399994,48.91103,0 2.398315,48.9095,0 2.398261,48.909378,0 2.397875,48.909042,0 2.39766,48.90884,0 2.39766,48.90884,0 2.396526,48.907787,0 2.396306,48.907562,0 2.395599,48.906902,0 2.395372,48.906673,0 2.395225,48.906544,0 2.395049,48.906441,0 2.394902,48.906307,0 2.394847,48.906197,0 2.39463,48.905991,0 2.394575,48.90591,0 2.394563,48.905861,0 2.394711,48.905773,0 2.395119,48.905502,0 2.395119,48.905502,0 2.396052,48.904881,0 2.397684,48.906059,0 2.397712,48.906071,0 2.397747,48.906075,0 2.397818,48.906059,0 2.398977,48.905567,0 2.40104,48.904709,0 2.401108,48.904686,0 2.403656,48.90361,0 2.403367,48.903385,0 2.402876,48.903027,0 2.402876,48.903027,0 2.401277,48.901848,0 2.400834,48.902069,0 2.40042,48.902203,0 2.400197,48.902252,0 2.398181,48.902607,0 2.39789,48.902401,0 2.39789,48.902401,0 2.396827,48.901596,0 2.396544,48.901394,0 2.396251,48.901173,0 2.395187,48.900429,0 2.396693,48.899372,0 2.396693,48.899372,0 2.396868,48.899265,0 2.396844,48.899239,0 2.396833,48.899204,0 2.396835,48.899174,0 2.396848,48.899143,0 2.39689,48.899101,0 2.396955,48.899075,0 2.397008,48.899067,0 2.39709,48.899075,0 2.397127,48.899036,0 2.397807,48.898563,0 2.397989,48.89846,0 2.398046,48.898354,0 2.398966,48.897728,0 2.399306,48.897503,0 2.399366,48.897419,0 2.399575,48.897274,0 2.399575,48.897274,0 2.399697,48.897194,0 2.39984,48.897186,0 2.400234,48.896912,0 2.4004,48.896805,0 2.400548,48.896725,0 2.400601,48.896599,0 2.40088,48.896404,0 2.400933,48.896347,0 2.400971,48.896278,0 2.401018,48.896122,0 2.400952,48.89584,0 2.400916,48.895767,0 2.400879,48.895741,0 2.400661,48.895611,0 2.400486,48.895493,0 2.400033,48.895256,0 2.400033,48.895256,0 2.39976,48.8951,0 2.399675,48.895031,0 2.398676,48.894154,0 2.399313,48.893593,0 2.399697,48.893269,0 2.399697,48.893269,0 2.400004,48.893009,0 2.400781,48.891075,0 2.400781,48.891075,0 2.400879,48.890812,0 2.402384,48.891205,0 2.402595,48.891247,0 2.402747,48.891239,0 2.403,48.891262,0 2.403,48.891262,0 2.403853,48.891376,0 2.405654,48.891697,0 2.405654,48.891697,0 2.406037,48.891762,0 2.406447,48.891827,0 2.409077,48.892307,0 2.409077,48.892307,0 2.409499,48.892395,0 2.409757,48.892441,0 2.409812,48.892338,0 2.409844,48.892254,0 2.409873,48.892117,0 2.409885,48.891994,0 2.409886,48.891041,0 2.40997,48.890297,0 2.40997,48.890297,0 2.41011,48.88913,0 2.410112,48.889,0 2.410137,48.888779,0 2.410137,48.888779,0 2.410317,48.887245,0 2.410008,48.887207,0 2.410008,48.887207,0 2.409985,48.88681,0 2.41,48.886093,0 2.410235,48.885166,0 2.410855,48.88533,0 2.411181,48.885406,0 2.411955,48.885521,0 2.411955,48.885521,0 2.416083,48.886135,0 2.416901,48.886311,0 2.416901,48.886311,0 2.417283,48.886398,0 2.417596,48.886578,0 2.417872,48.886936,0 2.417792,48.886986,0 2.417712,48.887089,0 2.417161,48.887939,0 2.417115,48.888027,0 2.416935,48.888577,0 2.416707,48.889183,0 2.416925,48.889183,0 2.417235,48.889202,0 2.417235,48.889202,0 2.419651,48.889324,0 2.419723,48.889336,0 2.419863,48.889381,0 2.419978,48.889446,0 2.420194,48.889614,0 2.421064,48.89019,0 2.421321,48.890373,0 2.422041,48.890862,0 2.422041,48.890862,0 2.422401,48.891113,0 2.422481,48.891182,0 2.422596,48.891258,0 2.422711,48.891319,0 2.42271,48.891346,0 2.422717,48.891365,0 2.422762,48.891434,0 2.422838,48.891502,0 2.422904,48.891541,0 2.422961,48.891552,0 2.42301,48.891541,0 2.423095,48.891651,0 2.423671,48.892471,0 2.424008,48.892941,0 2.424139,48.893089,0 2.424395,48.893433,0 2.425425,48.894917,0 2.425499,48.895008,0</coordinates>
        </LineString>
      </Placemark>
      <Placemark>
        <name>330</name>
        <styleUrl>#line_style</styleUrl>
        <LineString>
          <tessellate>1</tessellate>
          <coordinates>2.425499,48.895008,0 2.425425,48.894917,0 2.424395,48.893433,0 2.424139,48.893089,0 2.424008,48.892941,0 2.423157,48.891739,0 2.423157,48.891739,0 2.42301,48.891541,0 2.423032,48.891521,0 2.423035,48.891487,0 2.423012,48.891441,0 2.422927,48.891315,0 2.422868,48.891281,0 2.422819,48.891277,0 2.422823,48.891216,0 2.422805,48.891155,0 2.422768,48.891098,0 2.422701,48.891033,0 2.422653,48.890972,0 2.422263,48.890343,0 2.422057,48.890041,0 2.421887,48.889847,0 2.421609,48.889446,0 2.420668,48.887577,0 2.420313,48.886887,0 2.420285,48.886795,0 2.420257,48.886749,0 2.42003,48.886456,0 2.419918,48.886322,0 2.419918,48.886322,0 2.418712,48.884872,0 2.418504,48.884712,0 2.41836,48.884766,0 2.416332,48.884338,0 2.415629,48.884178,0 2.415505,48.884106,0 2.415411,48.884037,0 2.415142,48.883804,0 2.415142,48.883804,0 2.414921,48.883614,0 2.414832,48.883556,0 2.414469,48.883377,0 2.414396,48.883347,0 2.414308,48.883331,0 2.414196,48.883331,0 2.414115,48.883339,0 2.414015,48.883362,0 2.41395,48.883385,0 2.4138,48.883465,0 2.41357,48.883541,0 2.413429,48.883568,0 2.41307,48.883579,0 2.412946,48.883568,0 2.411968,48.883308,0 2.411645,48.883228,0 2.411489,48.883213,0 2.411545,48.883377,0 2.411545,48.883377,0 2.411557,48.883495,0 2.411502,48.883926,0 2.411369,48.884308,0 2.411209,48.884804,0 2.411075,48.885124,0 2.410877,48.885536,0 2.410877,48.885536,0 2.410592,48.886143,0 2.410434,48.886509,0 2.410392,48.886662,0 2.410339,48.887051,0 2.410339,48.887051,0 2.410137,48.888779,0 2.410137,48.888779,0 2.410112,48.889,0 2.41011,48.88913,0 2.40997,48.890297,0 2.40997,48.890297,0 2.409886,48.891041,0 2.409885,48.891994,0 2.409873,48.892117,0 2.409844,48.892254,0 2.409812,48.892338,0 2.409713,48.892529,0 2.409534,48.892502,0 2.408519,48.892292,0 2.408519,48.892292,0 2.406447,48.891899,0 2.405267,48.891697,0 2.405267,48.891697,0 2.404851,48.891632,0 2.403853,48.891434,0 2.403574,48.891396,0 2.402769,48.891304,0 2.402573,48.891243,0 2.402573,48.891243,0 2.402384,48.891205,0 2.402,48.891106,0 2.399808,48.89053,0 2.399384,48.890491,0 2.399104,48.890499,0 2.398933,48.890476,0 2.398727,48.890427,0 2.39859,48.890972,0 2.39859,48.890972,0 2.398417,48.891628,0 2.398176,48.892616,0 2.398027,48.893181,0 2.398027,48.893181,0 2.397967,48.893387,0 2.397988,48.893448,0 2.398011,48.893482,0 2.398669,48.894081,0 2.398676,48.894154,0 2.399675,48.895031,0 2.399675,48.895031,0 2.39976,48.8951,0 2.400033,48.895256,0 2.400486,48.895493,0 2.400945,48.895672,0 2.400974,48.895695,0 2.401022,48.895756,0 2.401042,48.895802,0 2.401043,48.895832,0 2.401107,48.896118,0 2.401133,48.896183,0 2.401186,48.896385,0 2.401214,48.896431,0 2.401189,48.896473,0 2.401135,48.896515,0 2.40078,48.896648,0 2.40078,48.896648,0 2.400678,48.89669,0 2.400548,48.896725,0 2.4004,48.896805,0 2.400234,48.896912,0 2.399614,48.897346,0 2.399404,48.897545,0 2.399015,48.897823,0 2.398875,48.897892,0 2.398638,48.898041,0 2.398182,48.898342,0 2.397989,48.89846,0 2.397911,48.898579,0 2.39729,48.899017,0 2.39729,48.899017,0 2.397158,48.899105,0 2.397188,48.899132,0 2.397207,48.899162,0 2.397212,48.899197,0 2.397204,48.899227,0 2.39717,48.899273,0 2.397129,48.899296,0 2.397048,48.899315,0 2.39698,48.899315,0 2.396917,48.899296,0 2.396868,48.899265,0 2.396693,48.899372,0 2.395187,48.900429,0 2.395037,48.900562,0 2.394863,48.90073,0 2.394814,48.900803,0 2.39478,48.900845,0 2.394145,48.901489,0 2.394145,48.901489,0 2.39402,48.901619,0 2.393975,48.901661,0 2.39389,48.901718,0 2.393185,48.902443,0 2.393111,48.902542,0 2.392988,48.902672,0 2.393274,48.902878,0 2.393274,48.902878,0 2.395615,48.904572,0 2.39596,48.904808,0 2.396052,48.904881,0 2.394711,48.905773,0 2.394563,48.905861,0 2.394701,48.905987,0 2.394846,48.906132,0 2.394846,48.906132,0 2.395068,48.906349,0 2.395122,48.906406,0 2.395225,48.906544,0 2.395372,48.906673,0 2.395599,48.906902,0 2.396306,48.907562,0 2.396526,48.907787,0 2.397875,48.909042,0 2.398261,48.909378,0 2.398261,48.909378,0 2.3984,48.909458,0 2.3994,48.910355,0 2.400059,48.910961,0 2.40032,48.91119,0 2.400407,48.911339,0 2.400921,48.911816,0 2.400921,48.911816,0 2.402785,48.913532,0 2.403171,48.913822,0 2.403541,48.914135,0 2.403942,48.91449,0 2.403942,48.91449,0 2.404195,48.914726,0 2.404851,48.914612,0 2.405379,48.914494,0 2.405654,48.914413,0 2.405991,48.914295,0 2.406198,48.914211,0 2.406555,48.914051,0 2.406689,48.913975,0 2.407211,48.913738,0 2.407211,48.913738,0 2.407848,48.913448,0 2.408304,48.913269,0 2.408473,48.913219,0 2.409082,48.912937,0 2.410472,48.912327,0 2.411942,48.911659,0 2.411942,48.911659,0 2.412376,48.911465,0 2.413044,48.911144,0 2.413685,48.91087,0 2.41428,48.910599,0 2.415879,48.910004,0 2.415941,48.910099,0 2.415941,48.910099,0 2.416744,48.911373,0 2.417805,48.91304,0 2.41784,48.913086,0 2.416894,48.913345,0 2.416894,48.913345,0 2.416078,48.913567,0 2.416023,48.913601,0 2.415995,48.913643,0 2.415823,48.914085,0 2.415751,48.914204,0 2.415669,48.91431,0 2.4156,48.914375,0 2.415493,48.914452,0 2.415329,48.914539,0 2.413632,48.915195,0 2.412966,48.914509,0 2.412406,48.913963,0 2.412056,48.914127,0 2.411923,48.914127,0 2.411632,48.914089,0 2.411632,48.914089,0 2.408877,48.91375,0 2.408118,48.913647,0 2.408118,48.913647,0 2.40795,48.913624,0 2.407872,48.913605,0 2.407807,48.913559,0 2.406249,48.914272,0 2.406001,48.914379,0 2.405718,48.914478,0 2.40552,48.914536,0 2.405047,48.914642,0 2.404703,48.914715,0</coordinates>
        </LineString>
      </Placemark>
      <Placemark>
        <name>330</name>
        <styleUrl>#line_style</styleUrl>
        <LineString>
          <tessellate>1</tessellate>
          <coordinates>2.400921,48.911816,0 2.402785,48.913532,0 2.403171,48.913822,0 2.403541,48.914135,0 2.403942,48.91449,0 2.403942,48.91449,0 2.404195,48.914726,0 2.404851,48.914612,0 2.405379,48.914494,0 2.405654,48.914413,0 2.405991,48.914295,0 2.406198,48.914211,0 2.406555,48.914051,0 2.406689,48.913975,0 2.407211,48.913738,0 2.407211,48.913738,0 2.407848,48.913448,0 2.408304,48.913269,0 2.408473,48.913219,0 2.409082,48.912937,0 2.410472,48.912327,0 2.411942,48.911659,0 2.411942,48.911659,0 2.412376,48.911465,0 2.413044,48.911144,0 2.413685,48.91087,0 2.41428,48.910599,0 2.415879,48.910004,0 2.415941,48.910099,0 2.415941,48.910099,0 2.416744,48.911373,0 2.417805,48.91304,0 2.41784,48.913086,0 2.416894,48.913345,0 2.416894,48.913345,0 2.416078,48.913567,0 2.416023,48.913601,0 2.415995,48.913643,0 2.415823,48.914085,0 2.415751,48.914204,0 2.415669,48.91431,0 2.4156,48.914375,0 2.415493,48.914452,0 2.415345,48.914394,0 2.415274,48.914375,0 2.41376,48.914188,0 2.412966,48.914509,0 2.412406,48.913963,0 2.412056,48.914127,0 2.411923,48.914127,0 2.411632,48.914089,0 2.411632,48.914089,0 2.408877,48.91375,0 2.408118,48.913647,0 2.408118,48.913647,0 2.40795,48.913624,0 2.407872,48.913605,0 2.407807,48.913559,0 2.406249,48.914272,0 2.406001,48.914379,0 2.405718,48.914478,0 2.40552,48.914536,0 2.405047,48.914642,0 2.404703,48.914715,0</coordinates>
        </LineString>
      </Placemark>
    </Folder>
    <Folder>
      <name>Arrêts</name>
      <Placemark>
        <name>Cartier Bresson</name>
        <styleUrl>#stop_style</styleUrl>
        <Point>
          <coordinates>2.397872976079407,48.90245912819283,0</coordinates>
        </Point>
      </Placemark>
      <Placemark>
        <name>Hoche - Métro</name>
        <styleUrl>#stop_style</styleUrl>
        <Point>
          <coordinates>2.4030631098644304,48.89118972676914,0</coordinates>
        </Point>
      </Placemark>
      <Placemark>
        <name>Montigny - Maison de Retraite</name>
        <styleUrl>#stop_style</styleUrl>
        <Point>
          <coordinates>2.4103932068815785,48.887017228098664,0</coordinates>
        </Point>
      </Placemark>
      <Placemark>
        <name>Hoche-Métro</name>
        <styleUrl>#stop_style</styleUrl>
        <Point>
          <coordinates>2.4022706886097343,48.891311678470124,0</coordinates>
        </Point>
      </Placemark>
      <Placemark>
        <name>La Pérouse</name>
        <styleUrl>#stop_style</styleUrl>
        <Point>
          <coordinates>2.394214994896657,48.90146942756464,0</coordinates>
        </Point>
      </Placemark>
      <Placemark>
        <name>Quatre Chemins - La Poste</name>
        <styleUrl>#stop_style</styleUrl>
        <Point>
          <coordinates>2.393312032767844,48.90286778105692,0</coordinates>
        </Point>
      </Placemark>
      <Placemark>
        <name>Condorcet</name>
        <styleUrl>#stop_style</styleUrl>
        <Point>
          <coordinates>2.3953025879631666,48.9064840723467,0</coordinates>
        </Point>
      </Placemark>
      <Placemark>
        <name>Jacques Cottin</name>
        <styleUrl>#stop_style</styleUrl>
        <Point>
          <coordinates>2.402845042216133,48.903068571608344,0</coordinates>
        </Point>
      </Placemark>
      <Placemark>
        <name>Paul Bert - Cimetière</name>
        <styleUrl>#stop_style</styleUrl>
        <Point>
          <coordinates>2.410060007621129,48.888742282296484,0</coordinates>
        </Point>
      </Placemark>
      <Placemark>
        <name>Pommiers - Cimetière</name>
        <styleUrl>#stop_style</styleUrl>
        <Point>
          <coordinates>2.4169064502227204,48.88627570772252,0</coordinates>
        </Point>
      </Placemark>
      <Placemark>
        <name>Rue Marcelle</name>
        <styleUrl>#stop_style</styleUrl>
        <Point>
          <coordinates>2.4151066675858024,48.88382077241199,0</coordinates>
        </Point>
      </Placemark>
      <Placemark>
        <name>Jean Moulin</name>
        <styleUrl>#stop_style</styleUrl>
        <Point>
          <coordinates>2.397326310932293,48.89901201730662,0</coordinates>
        </Point>
      </Placemark>
      <Placemark>
        <name>Place du Marché</name>
        <styleUrl>#stop_style</styleUrl>
        <Point>
          <coordinates>2.4116378982257394,48.914146539162644,0</coordinates>
        </Point>
      </Placemark>
      <Placemark>
        <name>Centre National de la Danse</name>
        <styleUrl>#stop_style</styleUrl>
        <Point>
          <coordinates>2.400001447290228,48.89532027642522,0</coordinates>
        </Point>
      </Placemark>
      <Placemark>
        <name>Hoche - Jean Lolive</name>
        <styleUrl>#stop_style</styleUrl>
        <Point>
          <coordinates>2.4006918384590246,48.89103399139676,0</coordinates>
        </Point>
      </Placemark>
      <Placemark>
        <name>Maison de Quartier - Pommiers</name>
        <styleUrl>#stop_style</styleUrl>
        <Point>
          <coordinates>2.411965329237696,48.885469132745314,0</coordinates>
        </Point>
      </Placemark>
      <Placemark>
        <name>Charles Auray</name>
        <styleUrl>#stop_style</styleUrl>
        <Point>
          <coordinates>2.417242424190405,48.889155167592804,0</coordinates>
        </Point>
      </Placemark>
      <Placemark>
        <name>Jules Jaslin</name>
        <styleUrl>#stop_style</styleUrl>
        <Point>
          <coordinates>2.422146622439484,48.890869652432215,0</coordinates>
        </Point>
      </Placemark>
      <Placemark>
        <name>8 mai 1945</name>
        <styleUrl>#stop_style</styleUrl>
        <Point>
          <coordinates>2.410029355050133,48.8902439943521,0</coordinates>
        </Point>
      </Placemark>
      <Placemark>
        <name>Ciné 104</name>
        <styleUrl>#stop_style</styleUrl>
        <Point>
          <coordinates>2.408450696488564,48.89234960294377,0</coordinates>
        </Point>
      </Placemark>
      <Placemark>
        <name>Etienne Marcel - Cornet</name>
        <styleUrl>#stop_style</styleUrl>
        <Point>
          <coordinates>2.4052796573540336,48.89175833299979,0</coordinates>
        </Point>
      </Placemark>
      <Placemark>
        <name>Pantin RER - Mairie</name>
        <styleUrl>#stop_style</styleUrl>
        <Point>
          <coordinates>2.4008449484682557,48.89669145783791,0</coordinates>
        </Point>
      </Placemark>
      <Placemark>
        <name>Cimetière Parisien</name>
        <styleUrl>#stop_style</styleUrl>
        <Point>
          <coordinates>2.398313461849188,48.90919714970161,0</coordinates>
        </Point>
      </Placemark>
      <Placemark>
        <name>Rechossière</name>
        <styleUrl>#stop_style</styleUrl>
        <Point>
          <coordinates>2.4010259537356955,48.91178274929716,0</coordinates>
        </Point>
      </Placemark>
      <Placemark>
        <name>Maison de Quartier - Courtillières</name>
        <styleUrl>#stop_style</styleUrl>
        <Point>
          <coordinates>2.4070060922929377,48.91380894727652,0</coordinates>
        </Point>
      </Placemark>
      <Placemark>
        <name>Congo</name>
        <styleUrl>#stop_style</styleUrl>
        <Point>
          <coordinates>2.39967090044023,48.89323220633118,0</coordinates>
        </Point>
      </Placemark>
      <Placemark>
        <name>Raymond Queneau - Anatole France</name>
        <styleUrl>#stop_style</styleUrl>
        <Point>
          <coordinates>2.4256191572873673,48.89505018819678,0</coordinates>
        </Point>
      </Placemark>
      <Placemark>
        <name>Convention</name>
        <styleUrl>#stop_style</styleUrl>
        <Point>
          <coordinates>2.4116067894197077,48.88340792116354,0</coordinates>
        </Point>
      </Placemark>
      <Placemark>
        <name>Cité du Pont de pierre</name>
        <styleUrl>#stop_style</styleUrl>
        <Point>
          <coordinates>2.4160655860468703,48.91018430326777,0</coordinates>
        </Point>
      </Placemark>
      <Placemark>
        <name>Division Leclerc - Courtillières</name>
        <styleUrl>#stop_style</styleUrl>
        <Point>
          <coordinates>2.4081400327308007,48.91367965984891,0</coordinates>
        </Point>
      </Placemark>
      <Placemark>
        <name>Fort d'Aubervilliers</name>
        <styleUrl>#stop_style</styleUrl>
        <Point>
          <coordinates>2.404716425227916,48.9147778280472,0</coordinates>
        </Point>
      </Placemark>
      <Placemark>
        <name>Etienne Marcel</name>
        <styleUrl>#stop_style</styleUrl>
        <Point>
          <coordinates>2.4056496195376296,48.89160728581389,0</coordinates>
        </Point>
      </Placemark>
      <Placemark>
        <name>Parc Henri Barbusse</name>
        <styleUrl>#stop_style</styleUrl>
        <Point>
          <coordinates>2.4199048228667253,48.886434163357144,0</coordinates>
        </Point>
      </Placemark>
      <Placemark>
        <name>Les Pommiers</name>
        <styleUrl>#stop_style</styleUrl>
        <Point>
          <coordinates>2.4109415080186065,48.88556302557092,0</coordinates>
        </Point>
      </Placemark>
      <Placemark>
        <name>Petits Ponts</name>
        <styleUrl>#stop_style</styleUrl>
        <Point>
          <coordinates>2.398645594634114,48.89107769186852,0</coordinates>
        </Point>
      </Placemark>
      <Placemark>
        <name>Delphine Seyrig</name>
        <styleUrl>#stop_style</styleUrl>
        <Point>
          <coordinates>2.3981035647255657,48.89313440702947,0</coordinates>
        </Point>
      </Placemark>
      <Placemark>
        <name>Division Leclerc - Stendhal</name>
        <styleUrl>#stop_style</styleUrl>
        <Point>
          <coordinates>2.4119566799522074,48.91159409285589,0</coordinates>
        </Point>
      </Placemark>
      <Placemark>
        <name>Les Courtillières</name>
        <styleUrl>#stop_style</styleUrl>
        <Point>
          <coordinates>2.4169166865522023,48.91337197206394,0</coordinates>
        </Point>
      </Placemark>
    </Folder>
  </Document>
</kml>