<?xml version='1.0' encoding='UTF-8'?>
<kml xmlns="http://www.opengis.net/kml/2.2">
  <Document>
    <name>Bus 58 - 58</name>
    <description>RATP</description>
    <Style id="line_style">
      <LineStyle>
        <color>ff3C6400</color>
        <width>3</width>
      </LineStyle>
    </Style>
    <Style id="stop_style">
      <IconStyle>
        <color>ff3C6400</color>
        <scale>0.6</scale>
        <Icon>
          <href>https://maps.google.com/mapfiles/kml/shapes/bus.png</href>
        </Icon>
      </IconStyle>
    </Style>
    <Folder>
      <name>Tracé</name>
      <Placemark>
        <name>58</name>
        <styleUrl>#line_style</styleUrl>
        <LineString>
          <tessellate>1</tessellate>
          <coordinates>2.288296,48.823441,0 2.288262,48.823444,0 2.288119,48.823402,0 2.288231,48.823219,0 2.288503,48.823353,0 2.28902,48.823635,0 2.28988,48.824078,0 2.290303,48.824291,0 2.290418,48.824341,0 2.291837,48.825077,0 2.291837,48.825077,0 2.292362,48.825348,0 2.292395,48.825329,0 2.292428,48.825317,0 2.292492,48.825314,0 2.292555,48.825333,0 2.292589,48.825363,0 2.294806,48.824944,0 2.295015,48.824635,0 2.296788,48.823502,0 2.297268,48.823738,0 2.297415,48.823742,0 2.297618,48.823837,0 2.297618,48.823837,0 2.298118,48.824062,0 2.298695,48.824306,0 2.298861,48.82444,0 2.299558,48.824764,0 2.299889,48.824886,0 2.300159,48.825012,0 2.300299,48.8251,0 2.300387,48.825172,0 2.30045,48.825237,0 2.300489,48.825302,0 2.300467,48.825439,0 2.300805,48.825294,0 2.301058,48.825237,0 2.301058,48.825237,0 2.301843,48.825062,0 2.302461,48.824944,0 2.304004,48.8246,0 2.304099,48.825001,0 2.304099,48.825001,0 2.30449,48.826439,0 2.30451,48.826488,0 2.304548,48.826534,0 2.304608,48.826576,0 2.3049,48.826698,0 2.304722,48.826965,0 2.304592,48.827179,0 2.304984,48.827381,0 2.304984,48.827381,0 2.30508,48.827423,0 2.305325,48.82756,0 2.305383,48.827621,0 2.305951,48.827492,0 2.306195,48.827415,0 2.30701,48.827236,0 2.307334,48.82719,0 2.310456,48.826496,0 2.310456,48.826496,0 2.312238,48.826099,0 2.312563,48.826019,0 2.313011,48.826324,0 2.313011,48.826324,0 2.315348,48.8279,0 2.315348,48.8279,0 2.317987,48.829681,0 2.319263,48.830532,0 2.31942,48.830685,0 2.319446,48.83073,0 2.319446,48.83073,0 2.319835,48.831337,0 2.320041,48.831627,0 2.320375,48.83218,0 2.320508,48.832378,0 2.320508,48.832378,0 2.320896,48.832985,0 2.321048,48.833191,0 2.321567,48.833794,0 2.321735,48.834,0 2.321735,48.834,0 2.321763,48.834045,0 2.321789,48.834385,0 2.321826,48.835163,0 2.321885,48.835972,0 2.321846,48.835995,0 2.322696,48.836502,0 2.322696,48.836502,0 2.323246,48.836823,0 2.323003,48.837399,0 2.322933,48.837528,0 2.322876,48.837662,0 2.322765,48.838058,0 2.322765,48.838058,0 2.322675,48.83823,0 2.322664,48.838398,0 2.322567,48.838661,0 2.322245,48.839455,0 2.321612,48.840927,0 2.321612,48.840927,0 2.321595,48.840981,0 2.321599,48.841042,0 2.321614,48.841076,0 2.321682,48.841148,0 2.32262,48.841873,0 2.32391,48.842911,0 2.32391,48.842911,0 2.324174,48.843132,0 2.324229,48.843239,0 2.324261,48.843357,0 2.32427,48.843472,0 2.324675,48.843533,0 2.326321,48.842991,0 2.326375,48.843052,0 2.328727,48.842266,0 2.328727,48.842266,0 2.329698,48.841957,0 2.329669,48.842037,0 2.329152,48.843803,0 2.328877,48.844788,0 2.328877,48.844788,0 2.328314,48.846748,0 2.328531,48.846809,0 2.328531,48.846809,0 2.328847,48.846893,0 2.330049,48.847088,0 2.330741,48.847076,0 2.330741,48.847076,0 2.332465,48.847034,0 2.332575,48.848663,0 2.332936,48.848751,0 2.333365,48.848827,0 2.333365,48.848827,0 2.334102,48.848976,0 2.334854,48.849113,0 2.335455,48.849236,0 2.335984,48.849266,0 2.336466,48.849277,0 2.337019,48.849304,0 2.337019,48.849304,0 2.337331,48.849312,0 2.337533,48.849308,0 2.337836,48.849277,0 2.338428,48.849178,0 2.338694,48.849068,0 2.339035,48.849079,0 2.339029,48.849636,0 2.339029,48.849636,0 2.339027,48.849796,0 2.339019,48.849865,0 2.338991,48.849918,0 2.338954,48.849957,0 2.338909,48.849987,0 2.338857,48.850006,0 2.33879,48.850025,0 2.338712,48.850033,0 2.338692,48.851639,0 2.338692,48.851639,0 2.33869,48.85181,0 2.33867,48.852055,0 2.338695,48.85215,0 2.338784,48.852673,0 2.338766,48.852741,0 2.338386,48.853664,0 2.338486,48.853718,0 2.338777,48.854061,0 2.338777,48.854061,0 2.339319,48.854698,0 2.340306,48.855888,0 2.340306,48.855888,0 2.340358,48.855953,0 2.340388,48.856014,0 2.340401,48.856133,0 2.340462,48.856167,0 2.340578,48.856247,0 2.340668,48.856339,0 2.341005,48.85675,0 2.34117,48.856808,0 2.341331,48.856892,0 2.341365,48.856918,0 2.341431,48.856998,0 2.34151,48.857098,0 2.34152,48.857319,0 2.342379,48.858379,0 2.342457,48.858486,0 2.343168,48.858292,0 2.343168,48.858292,0 2.34542,48.857685,0 2.345828,48.857567,0 2.346921,48.857285,0 2.348049,48.856976,0 2.348049,48.856976,0 2.348243,48.856922,0</coordinates>
        </LineString>
      </Placemark>
      <Placemark>
        <name>58</name>
        <styleUrl>#line_style</styleUrl>
        <LineString>
          <tessellate>1</tessellate>
          <coordinates>2.348035,48.857655,0 2.347183,48.857891,0 2.346945,48.857494,0 2.346916,48.85743,0 2.346921,48.857285,0 2.346978,48.857208,0 2.346983,48.857155,0 2.346449,48.856281,0 2.346481,48.856197,0 2.346462,48.85611,0 2.34616,48.855667,0 2.34616,48.855667,0 2.346025,48.855473,0 2.345746,48.855137,0 2.34492,48.854336,0 2.34443,48.853848,0 2.34434,48.853767,0 2.344115,48.853848,0 2.343925,48.853931,0 2.34349,48.854149,0 2.34349,48.854149,0 2.342539,48.854622,0 2.341568,48.855278,0 2.34058,48.855988,0 2.340401,48.856133,0 2.339918,48.85643,0 2.339529,48.856228,0 2.339529,48.856228,0 2.337822,48.855305,0 2.337757,48.855278,0 2.337954,48.854778,0 2.33803,48.854565,0 2.33803,48.854565,0 2.338261,48.853947,0 2.338329,48.853779,0 2.338386,48.853664,0 2.338766,48.852741,0 2.338766,48.852741,0 2.338784,48.852673,0 2.338695,48.85215,0 2.33867,48.852055,0 2.338401,48.851723,0 2.33826,48.851528,0 2.338223,48.851429,0 2.338144,48.851158,0 2.338058,48.850651,0 2.337935,48.849842,0 2.337836,48.849277,0 2.337533,48.849308,0 2.337533,48.849308,0 2.337331,48.849312,0 2.337019,48.849304,0 2.336466,48.849277,0 2.335984,48.849266,0 2.335455,48.849236,0 2.334854,48.849113,0 2.334102,48.848976,0 2.333365,48.848827,0 2.332936,48.848751,0 2.332575,48.848663,0 2.332551,48.848251,0 2.332551,48.848251,0 2.332465,48.847034,0 2.332374,48.845379,0 2.332374,48.845379,0 2.332327,48.844963,0 2.332426,48.84486,0 2.330618,48.843987,0 2.330437,48.843884,0 2.330171,48.8437,0 2.330171,48.8437,0 2.329351,48.843117,0 2.329196,48.843002,0 2.329437,48.842113,0 2.328974,48.842266,0 2.328974,48.842266,0 2.32643,48.843113,0 2.324598,48.843697,0 2.324598,48.843697,0 2.32446,48.843742,0 2.32427,48.843739,0 2.323382,48.844028,0 2.323461,48.843872,0 2.323516,48.843815,0 2.32395,48.843578,0 2.324019,48.84351,0 2.32406,48.843437,0 2.324076,48.843361,0 2.324069,48.843296,0 2.324049,48.843243,0 2.324015,48.843193,0 2.323659,48.842907,0 2.323659,48.842907,0 2.321534,48.841167,0 2.321534,48.841167,0 2.321407,48.841057,0 2.32138,48.841022,0 2.321374,48.840981,0 2.321385,48.840931,0 2.321465,48.840744,0 2.321697,48.840149,0 2.321689,48.840046,0 2.321737,48.839867,0 2.322351,48.838413,0 2.322351,48.838413,0 2.322382,48.838356,0 2.322498,48.838192,0 2.322602,48.838139,0 2.322876,48.837662,0 2.322933,48.837528,0 2.323003,48.837399,0 2.323354,48.836571,0 2.323354,48.836571,0 2.323642,48.835815,0 2.324535,48.833611,0 2.324535,48.833611,0 2.325007,48.832458,0 2.324961,48.832355,0 2.324712,48.832031,0 2.324069,48.83112,0 2.324069,48.83112,0 2.32351,48.830292,0 2.323065,48.8298,0 2.322938,48.829647,0 2.322938,48.829647,0 2.322653,48.8293,0 2.32224,48.828773,0 2.321733,48.828281,0 2.321107,48.827702,0 2.320383,48.826988,0 2.320383,48.826988,0 2.319841,48.82642,0 2.319589,48.826172,0 2.318586,48.8251,0 2.318586,48.8251,0 2.318402,48.824898,0 2.318338,48.82481,0 2.318327,48.824738,0 2.318326,48.824654,0 2.318336,48.824589,0 2.318356,48.824532,0 2.318389,48.824474,0 2.318442,48.824409,0 2.318547,48.824329,0 2.318635,48.824284,0 2.318566,48.824219,0 2.318,48.823963,0 2.317659,48.823837,0 2.31751,48.823837,0 2.317128,48.8237,0 2.316908,48.823784,0 2.316825,48.823807,0 2.316825,48.823807,0 2.316269,48.823967,0 2.314345,48.824547,0 2.313535,48.82468,0 2.31194,48.824902,0 2.311179,48.825104,0 2.311085,48.825142,0 2.310766,48.825245,0 2.310766,48.825245,0 2.30965,48.825584,0 2.307198,48.825951,0 2.305353,48.82655,0 2.305353,48.82655,0 2.305097,48.826641,0 2.3049,48.826698,0 2.304722,48.826965,0 2.304592,48.827179,0 2.304004,48.826878,0 2.303639,48.826668,0 2.30336,48.826496,0 2.302639,48.826012,0 2.302548,48.825912,0 2.302402,48.825603,0 2.302317,48.825443,0 2.301884,48.82555,0 2.301884,48.82555,0 2.300917,48.825756,0 2.300576,48.825798,0 2.300283,48.825844,0 2.300245,48.825745,0 2.300252,48.825626,0 2.300276,48.825489,0 2.300286,48.825344,0 2.300273,48.825256,0 2.300248,48.825207,0 2.300167,48.825111,0 2.300045,48.825039,0 2.299912,48.824974,0 2.299558,48.824764,0 2.298861,48.82444,0 2.298556,48.824337,0 2.297415,48.823826,0 2.297415,48.823826,0 2.297334,48.823788,0 2.297268,48.823738,0 2.295522,48.824814,0 2.293106,48.825268,0 2.293106,48.825268,0 2.292589,48.825363,0 2.292598,48.825394,0 2.292593,48.82542,0 2.292574,48.825447,0 2.292543,48.825466,0 2.29246,48.825481,0 2.292422,48.825474,0 2.292363,48.825443,0 2.292342,48.825405,0 2.292343,48.825382,0 2.292362,48.825348,0 2.290418,48.824341,0 2.290303,48.824291,0 2.28988,48.824078,0 2.28902,48.823635,0 2.288503,48.823353,0 2.288432,48.823414,0 2.288359,48.823437,0 2.288296,48.823441,0</coordinates>
        </LineString>
      </Placemark>
      <Placemark>
        <name>58</name>
        <styleUrl>#line_style</styleUrl>
        <LineString>
          <tessellate>1</tessellate>
          <coordinates>2.305353,48.82655,0 2.305097,48.826641,0 2.3049,48.826698,0 2.304722,48.826965,0 2.304592,48.827179,0 2.304004,48.826878,0 2.303639,48.826668,0 2.30336,48.826496,0 2.302639,48.826012,0 2.302548,48.825912,0 2.302402,48.825603,0 2.302317,48.825443,0 2.301884,48.82555,0 2.301884,48.82555,0 2.300917,48.825756,0 2.300576,48.825798,0 2.300283,48.825844,0 2.300245,48.825745,0 2.300252,48.825626,0 2.300276,48.825489,0 2.300286,48.825344,0 2.300273,48.825256,0 2.300248,48.825207,0 2.300167,48.825111,0 2.300045,48.825039,0 2.299912,48.824974,0 2.299558,48.824764,0 2.298861,48.82444,0 2.298556,48.824337,0 2.297415,48.823826,0 2.297415,48.823826,0 2.297334,48.823788,0 2.297268,48.823738,0 2.295522,48.824814,0 2.293106,48.825268,0 2.293106,48.825268,0 2.292589,48.825363,0 2.292598,48.825394,0 2.292593,48.82542,0 2.292574,48.825447,0 2.292543,48.825466,0 2.29246,48.825481,0 2.292422,48.825474,0 2.292363,48.825443,0 2.292342,48.825405,0 2.292343,48.825382,0 2.292362,48.825348,0 2.290418,48.824341,0 2.290303,48.824291,0 2.28988,48.824078,0 2.28902,48.823635,0 2.288503,48.823353,0 2.288432,48.823414,0 2.288359,48.823437,0 2.288296,48.823441,0</coordinates>
        </LineString>
      </Placemark>
    </Folder>
    <Folder>
      <name>Arrêts</name>
      <Placemark>
        <name>Hôpitaux Broussais et Saint-Joseph</name>
        <styleUrl>#stop_style</styleUrl>
        <Point>
          <coordinates>2.3153557832748684,48.82784664507294,0</coordinates>
        </Point>
      </Placemark>
      <Placemark>
        <name>Notre-Dame-des-Champs</name>
        <styleUrl>#stop_style</styleUrl>
        <Point>
          <coordinates>2.3289642479173613,48.84475997785219,0</coordinates>
        </Point>
      </Placemark>
      <Placemark>
        <name>Saint-André des Arts</name>
        <styleUrl>#stop_style</styleUrl>
        <Point>
          <coordinates>2.3388211228727545,48.85402428840143,0</coordinates>
        </Point>
      </Placemark>
      <Placemark>
        <name>Châtelet</name>
        <styleUrl>#stop_style</styleUrl>
        <Point>
          <coordinates>2.3481104294942865,48.85772662716765,0</coordinates>
        </Point>
      </Placemark>
      <Placemark>
        <name>Cité - Palais de Justice</name>
        <styleUrl>#stop_style</styleUrl>
        <Point>
          <coordinates>2.3461052630170216,48.85568315218315,0</coordinates>
        </Point>
      </Placemark>
      <Placemark>
        <name>Rue Benard</name>
        <styleUrl>#stop_style</styleUrl>
        <Point>
          <coordinates>2.3239902763134754,48.831133516680964,0</coordinates>
        </Point>
      </Placemark>
      <Placemark>
        <name>Jean Jaurès - Jean Bleuzen</name>
        <styleUrl>#stop_style</styleUrl>
        <Point>
          <coordinates>2.2973739647431417,48.82387501085294,0</coordinates>
        </Point>
      </Placemark>
      <Placemark>
        <name>Pont de la Vallée</name>
        <styleUrl>#stop_style</styleUrl>
        <Point>
          <coordinates>2.304196927447102,48.82497617592906,0</coordinates>
        </Point>
      </Placemark>
      <Placemark>
        <name>Colonel Monteil</name>
        <styleUrl>#stop_style</styleUrl>
        <Point>
          <coordinates>2.3103756201978447,48.8264060058969,0</coordinates>
        </Point>
      </Placemark>
      <Placemark>
        <name>Didot</name>
        <styleUrl>#stop_style</styleUrl>
        <Point>
          <coordinates>2.313074364222791,48.82627763739524,0</coordinates>
        </Point>
      </Placemark>
      <Placemark>
        <name>Gare Montparnasse</name>
        <styleUrl>#stop_style</styleUrl>
        <Point>
          <coordinates>2.32171038698047,48.84093274265036,0</coordinates>
        </Point>
      </Placemark>
      <Placemark>
        <name>Fleurus</name>
        <styleUrl>#stop_style</styleUrl>
        <Point>
          <coordinates>2.3306522718676246,48.84700884532018,0</coordinates>
        </Point>
      </Placemark>
      <Placemark>
        <name>Musée du Luxembourg</name>
        <styleUrl>#stop_style</styleUrl>
        <Point>
          <coordinates>2.333314362195837,48.8487594742244,0</coordinates>
        </Point>
      </Placemark>
      <Placemark>
        <name>Pont Neuf - Quai du Louvre</name>
        <styleUrl>#stop_style</styleUrl>
        <Point>
          <coordinates>2.3431295000142556,48.858212019187484,0</coordinates>
        </Point>
      </Placemark>
      <Placemark>
        <name>Saint-Michel</name>
        <styleUrl>#stop_style</styleUrl>
        <Point>
          <coordinates>2.3434392164564897,48.85418462051118,0</coordinates>
        </Point>
      </Placemark>
      <Placemark>
        <name>Saint-Germain - Odéon</name>
        <styleUrl>#stop_style</styleUrl>
        <Point>
          <coordinates>2.3386066884298105,48.85266507713106,0</coordinates>
        </Point>
      </Placemark>
      <Placemark>
        <name>Château</name>
        <styleUrl>#stop_style</styleUrl>
        <Point>
          <coordinates>2.3217873379810796,48.83397205877862,0</coordinates>
        </Point>
      </Placemark>
      <Placemark>
        <name>Gaîté</name>
        <styleUrl>#stop_style</styleUrl>
        <Point>
          <coordinates>2.322837599754609,48.83807014563174,0</coordinates>
        </Point>
      </Placemark>
      <Placemark>
        <name>Théâtre de l'Odéon</name>
        <styleUrl>#stop_style</styleUrl>
        <Point>
          <coordinates>2.3390675765731674,48.84963679139544,0</coordinates>
        </Point>
      </Placemark>
      <Placemark>
        <name>Pont Neuf - Quai des Grands Augustins</name>
        <styleUrl>#stop_style</styleUrl>
        <Point>
          <coordinates>2.339515463079694,48.85623153930209,0</coordinates>
        </Point>
      </Placemark>
      <Placemark>
        <name>Sénat</name>
        <styleUrl>#stop_style</styleUrl>
        <Point>
          <coordinates>2.3375448323144865,48.8493585624015,0</coordinates>
        </Point>
      </Placemark>
      <Placemark>
        <name>Guynemer - Vavin</name>
        <styleUrl>#stop_style</styleUrl>
        <Point>
          <coordinates>2.332254765052171,48.845309013287086,0</coordinates>
        </Point>
      </Placemark>
      <Placemark>
        <name>Vavin</name>
        <styleUrl>#stop_style</styleUrl>
        <Point>
          <coordinates>2.328955678637048,48.842250704337864,0</coordinates>
        </Point>
      </Placemark>
      <Placemark>
        <name>Montparnasse - Cinémas</name>
        <styleUrl>#stop_style</styleUrl>
        <Point>
          <coordinates>2.324590550549746,48.84368310967227,0</coordinates>
        </Point>
      </Placemark>
      <Placemark>
        <name>Montparnasse - Rue du Départ</name>
        <styleUrl>#stop_style</styleUrl>
        <Point>
          <coordinates>2.323646372257609,48.84294029630934,0</coordinates>
        </Point>
      </Placemark>
      <Placemark>
        <name>Château - Mairie du 14ème</name>
        <styleUrl>#stop_style</styleUrl>
        <Point>
          <coordinates>2.324393419869414,48.83366303374695,0</coordinates>
        </Point>
      </Placemark>
      <Placemark>
        <name>Porte Didot - Lycée Raspail</name>
        <styleUrl>#stop_style</styleUrl>
        <Point>
          <coordinates>2.310812833113922,48.82527530762098,0</coordinates>
        </Point>
      </Placemark>
      <Placemark>
        <name>Alésia - Didot</name>
        <styleUrl>#stop_style</styleUrl>
        <Point>
          <coordinates>2.3195271749996222,48.83073946314195,0</coordinates>
        </Point>
      </Placemark>
      <Placemark>
        <name>Bréa - Notre-Dame-des-Champs</name>
        <styleUrl>#stop_style</styleUrl>
        <Point>
          <coordinates>2.330149313510528,48.843732351415674,0</coordinates>
        </Point>
      </Placemark>
      <Placemark>
        <name>Hôpital Notre-Dame de Bon Secours</name>
        <styleUrl>#stop_style</styleUrl>
        <Point>
          <coordinates>2.320311166688292,48.8270294959903,0</coordinates>
        </Point>
      </Placemark>
      <Placemark>
        <name>Jean Moulin</name>
        <styleUrl>#stop_style</styleUrl>
        <Point>
          <coordinates>2.3185244286111515,48.8251216381032,0</coordinates>
        </Point>
      </Placemark>
      <Placemark>
        <name>Porte de Châtillon</name>
        <styleUrl>#stop_style</styleUrl>
        <Point>
          <coordinates>2.3168245564000562,48.82387079409874,0</coordinates>
        </Point>
      </Placemark>
      <Placemark>
        <name>Carrefour Albert Legris</name>
        <styleUrl>#stop_style</styleUrl>
        <Point>
          <coordinates>2.2918283437444047,48.82502048983392,0</coordinates>
        </Point>
      </Placemark>
      <Placemark>
        <name>Adolphe Pinard</name>
        <styleUrl>#stop_style</styleUrl>
        <Point>
          <coordinates>2.3009935622999773,48.82515535830809,0</coordinates>
        </Point>
      </Placemark>
      <Placemark>
        <name>Porte de Vanves</name>
        <styleUrl>#stop_style</styleUrl>
        <Point>
          <coordinates>2.305023942802538,48.82731037992456,0</coordinates>
        </Point>
      </Placemark>
      <Placemark>
        <name>Pernety</name>
        <styleUrl>#stop_style</styleUrl>
        <Point>
          <coordinates>2.320568561167915,48.832364257582405,0</coordinates>
        </Point>
      </Placemark>
      <Placemark>
        <name>Losserand - Maine</name>
        <styleUrl>#stop_style</styleUrl>
        <Point>
          <coordinates>2.322654399939153,48.836441249394525,0</coordinates>
        </Point>
      </Placemark>
      <Placemark>
        <name>Raspail - Fleurus</name>
        <styleUrl>#stop_style</styleUrl>
        <Point>
          <coordinates>2.3285296515274148,48.846763117029894,0</coordinates>
        </Point>
      </Placemark>
      <Placemark>
        <name>Châtelet - Quai de Gesvres</name>
        <styleUrl>#stop_style</styleUrl>
        <Point>
          <coordinates>2.347984271122688,48.8569165239546,0</coordinates>
        </Point>
      </Placemark>
      <Placemark>
        <name>Mazarine</name>
        <styleUrl>#stop_style</styleUrl>
        <Point>
          <coordinates>2.3379829777168943,48.85455926676692,0</coordinates>
        </Point>
      </Placemark>
      <Placemark>
        <name>Alésia - les Plantes</name>
        <styleUrl>#stop_style</styleUrl>
        <Point>
          <coordinates>2.3228250484787254,48.82959798714423,0</coordinates>
        </Point>
      </Placemark>
      <Placemark>
        <name>Vanves - Lycée Michelet</name>
        <styleUrl>#stop_style</styleUrl>
        <Point>
          <coordinates>2.288280271044934,48.82350644931391,0</coordinates>
        </Point>
      </Placemark>
    </Folder>
  </Document>
</kml>