<?xml version='1.0' encoding='UTF-8'?>
<kml xmlns="http://www.opengis.net/kml/2.2">
  <Document>
    <name>Bus 21 - 21</name>
    <description>RATP</description>
    <Style id="line_style">
      <LineStyle>
        <color>ff73DC82</color>
        <width>3</width>
      </LineStyle>
    </Style>
    <Style id="stop_style">
      <IconStyle>
        <color>ff73DC82</color>
        <scale>0.6</scale>
        <Icon>
          <href>https://maps.google.com/mapfiles/kml/shapes/bus.png</href>
        </Icon>
      </IconStyle>
    </Style>
    <Folder>
      <name>Tracé</name>
      <Placemark>
        <name>21</name>
        <styleUrl>#line_style</styleUrl>
        <LineString>
          <tessellate>1</tessellate>
          <coordinates>2.343097,48.81963,0 2.342829,48.81966,0 2.342863,48.819778,0 2.342838,48.820526,0 2.342636,48.821106,0 2.34263,48.82114,0 2.342643,48.821175,0 2.342687,48.821205,0 2.342642,48.821236,0 2.342518,48.821396,0 2.342041,48.822113,0 2.341895,48.822365,0 2.341895,48.822365,0 2.341738,48.822662,0 2.341671,48.822865,0 2.341678,48.82296,0 2.341641,48.823101,0 2.341473,48.823627,0 2.341462,48.823692,0 2.341464,48.82378,0 2.341534,48.824486,0 2.341534,48.824486,0 2.341597,48.825146,0 2.341595,48.825352,0 2.341699,48.826088,0 2.341723,48.826214,0 2.341748,48.82629,0 2.341931,48.82674,0 2.341931,48.82674,0 2.342551,48.828205,0 2.342607,48.8283,0 2.342648,48.82835,0 2.342866,48.828583,0 2.342972,48.828686,0 2.343112,48.82885,0 2.343112,48.82885,0 2.343179,48.828968,0 2.343373,48.829277,0 2.343949,48.830315,0 2.343999,48.830421,0 2.344139,48.830811,0 2.344211,48.83099,0 2.344211,48.83099,0 2.344279,48.831207,0 2.344619,48.832973,0 2.344619,48.832973,0 2.345061,48.835316,0 2.345061,48.835316,0 2.345142,48.835762,0 2.345438,48.837261,0 2.345505,48.837498,0 2.345525,48.837677,0 2.345568,48.837959,0 2.345568,48.837959,0 2.346002,48.840279,0 2.345902,48.84034,0 2.34527,48.840588,0 2.34527,48.840588,0 2.343732,48.841171,0 2.343682,48.841198,0 2.343592,48.84127,0 2.343505,48.841404,0 2.3434,48.84161,0 2.3434,48.84161,0 2.342915,48.842575,0 2.342546,48.843277,0 2.3422,48.844009,0 2.3422,48.844009,0 2.341931,48.844528,0 2.341161,48.846088,0 2.340933,48.846508,0 2.340933,48.846508,0 2.340803,48.84676,0 2.340753,48.846817,0 2.340633,48.846931,0 2.340982,48.847565,0 2.342412,48.849915,0 2.342412,48.849915,0 2.342644,48.850307,0 2.342803,48.850628,0 2.343822,48.85276,0 2.344107,48.853325,0 2.344131,48.853394,0 2.34423,48.853619,0 2.34423,48.853619,0 2.344255,48.853672,0 2.34434,48.853767,0 2.34443,48.853848,0 2.34492,48.854336,0 2.345746,48.855137,0 2.346025,48.855473,0 2.346234,48.855774,0 2.346234,48.855774,0 2.346462,48.85611,0 2.346481,48.856197,0 2.346596,48.856243,0 2.34714,48.857117,0 2.347433,48.857243,0 2.347535,48.857319,0 2.347569,48.857357,0 2.34799,48.858097,0 2.348233,48.858543,0 2.346787,48.859013,0 2.346787,48.859013,0 2.344467,48.859764,0 2.344467,48.859764,0 2.34235,48.860458,0 2.341212,48.860817,0 2.340635,48.861042,0 2.340318,48.861145,0 2.340318,48.861145,0 2.336392,48.862427,0 2.336392,48.862427,0 2.333806,48.863255,0 2.334231,48.863823,0 2.334606,48.864338,0 2.334718,48.86441,0 2.334776,48.864429,0 2.334965,48.86446,0 2.334291,48.866028,0 2.334291,48.866028,0 2.333771,48.867229,0 2.333662,48.867512,0 2.333553,48.867744,0 2.333345,48.868225,0 2.333345,48.868225,0 2.332635,48.869881,0 2.332635,48.869881,0 2.332552,48.870075,0 2.332715,48.8703,0 2.332342,48.871155,0 2.332623,48.871784,0 2.332623,48.871784,0 2.333057,48.872772,0 2.333057,48.872795,0 2.333136,48.872875,0 2.333257,48.87294,0 2.333017,48.872986,0 2.331195,48.873222,0 2.331298,48.874142,0 2.331298,48.874142,0 2.331406,48.875015,0 2.331148,48.875988,0 2.331087,48.876255,0 2.330958,48.876541,0 2.3309,48.876705,0 2.330841,48.876835,0 2.330629,48.87722,0 2.330629,48.87722,0 2.330144,48.87809,0 2.329365,48.879353,0 2.329268,48.879559,0 2.329268,48.879559,0 2.328811,48.880535,0 2.328496,48.881241,0 2.328462,48.881298,0 2.327968,48.882362,0 2.327715,48.882889,0 2.327715,48.882889,0 2.327508,48.883389,0 2.327646,48.883446,0 2.327652,48.883488,0 2.327644,48.883549,0 2.32759,48.883617,0 2.327493,48.883671,0 2.327362,48.883667,0 2.327211,48.883945,0 2.32693,48.884541,0 2.326731,48.884937,0 2.32664,48.885143,0 2.326585,48.885227,0 2.326541,48.885323,0 2.326541,48.885323,0 2.326316,48.885792,0 2.325949,48.886597,0 2.325888,48.886749,0 2.325603,48.887371,0 2.325553,48.887501,0 2.325782,48.888195,0 2.325782,48.888195,0 2.326494,48.890358,0 2.326494,48.890358,0 2.326912,48.891621,0 2.326933,48.891701,0 2.327241,48.892536,0 2.327332,48.892818,0 2.327332,48.892818,0 2.328181,48.895321,0 2.328181,48.895321,0 2.328334,48.895767,0 2.328357,48.895802,0 2.328384,48.895874,0 2.328639,48.896618,0 2.328688,48.896709,0 2.328918,48.897461,0 2.328937,48.897549,0 2.329014,48.897732,0 2.329149,48.898102,0 2.329149,48.898102,0 2.329181,48.89819,0 2.329251,48.898319,0 2.329477,48.898998,0 2.329496,48.899105,0 2.329586,48.899372,0</coordinates>
        </LineString>
      </Placemark>
      <Placemark>
        <name>21</name>
        <styleUrl>#line_style</styleUrl>
        <LineString>
          <tessellate>1</tessellate>
          <coordinates>2.329539,48.899235,0 2.329496,48.899105,0 2.329477,48.898998,0 2.329251,48.898319,0 2.329181,48.89819,0 2.329014,48.897732,0 2.328937,48.897549,0 2.328918,48.897461,0 2.328835,48.897198,0 2.328835,48.897198,0 2.328688,48.896709,0 2.328639,48.896618,0 2.328384,48.895874,0 2.328357,48.895802,0 2.328334,48.895767,0 2.328156,48.895237,0 2.328156,48.895237,0 2.327748,48.894051,0 2.3274,48.893005,0 2.327364,48.892918,0 2.327241,48.892536,0 2.327241,48.892536,0 2.326933,48.891701,0 2.326912,48.891621,0 2.326494,48.890358,0 2.326494,48.890358,0 2.325637,48.887756,0 2.325637,48.887756,0 2.325553,48.887501,0 2.325603,48.887371,0 2.32621,48.886028,0 2.32621,48.886028,0 2.326585,48.885227,0 2.32664,48.885143,0 2.326731,48.884937,0 2.32693,48.884541,0 2.327211,48.883945,0 2.327362,48.883667,0 2.327227,48.883617,0 2.327035,48.883568,0 2.326704,48.883495,0 2.326804,48.88327,0 2.326523,48.882904,0 2.326523,48.882904,0 2.32545,48.881561,0 2.325037,48.881073,0 2.325037,48.881073,0 2.324822,48.880814,0 2.32449,48.880375,0 2.323462,48.879108,0 2.323373,48.879124,0 2.323327,48.87912,0 2.323283,48.879108,0 2.323212,48.87907,0 2.323189,48.879047,0 2.323177,48.879017,0 2.323177,48.878967,0 2.323207,48.878922,0 2.323271,48.878883,0 2.3232,48.878773,0 2.323139,48.878696,0 2.323139,48.878696,0 2.322623,48.878056,0 2.323164,48.877048,0 2.323904,48.875637,0 2.323833,48.875187,0 2.326259,48.875542,0 2.326259,48.875542,0 2.326594,48.875572,0 2.326665,48.875214,0 2.326726,48.874989,0 2.326726,48.874989,0 2.326771,48.874828,0 2.326861,48.874428,0 2.326925,48.874184,0 2.327016,48.873974,0 2.327065,48.87389,0 2.32713,48.873749,0 2.327181,48.873661,0 2.327695,48.873402,0 2.32793,48.87326,0 2.32793,48.87326,0 2.328304,48.873032,0 2.328681,48.87286,0 2.329581,48.872341,0 2.329581,48.872341,0 2.331536,48.871246,0 2.331536,48.871246,0 2.331851,48.871075,0 2.331999,48.870777,0 2.332229,48.870209,0 2.332552,48.870075,0 2.332707,48.869713,0 2.332707,48.869713,0 2.333553,48.867744,0 2.333662,48.867512,0 2.333771,48.867229,0 2.333956,48.866806,0 2.333956,48.866806,0 2.335125,48.864094,0 2.335125,48.864094,0 2.335362,48.863541,0 2.335518,48.863224,0 2.335643,48.863129,0 2.335963,48.863041,0 2.33732,48.862713,0 2.338089,48.862499,0 2.338541,48.862385,0 2.338541,48.862385,0 2.339167,48.862221,0 2.339458,48.862125,0 2.339123,48.861485,0 2.339151,48.861454,0 2.340821,48.860912,0 2.340607,48.860466,0 2.340607,48.860466,0 2.340466,48.860176,0 2.339848,48.85899,0 2.341566,48.858662,0 2.341566,48.858662,0 2.342199,48.858547,0 2.342464,48.858482,0 2.34542,48.857685,0 2.345828,48.857567,0 2.346281,48.857452,0 2.346281,48.857452,0 2.346921,48.857285,0 2.346978,48.857208,0 2.346983,48.857155,0 2.346449,48.856281,0 2.346481,48.856197,0 2.346462,48.85611,0 2.34616,48.855667,0 2.34616,48.855667,0 2.346025,48.855473,0 2.345746,48.855137,0 2.34492,48.854336,0 2.34443,48.853848,0 2.34434,48.853767,0 2.344255,48.853672,0 2.344131,48.853394,0 2.344107,48.853325,0 2.343822,48.85276,0 2.343422,48.851929,0 2.343422,48.851929,0 2.342803,48.850628,0 2.342644,48.850307,0 2.342412,48.849915,0 2.342221,48.849606,0 2.342221,48.849606,0 2.340982,48.847565,0 2.340633,48.846931,0 2.340753,48.846817,0 2.340803,48.84676,0 2.340933,48.846508,0 2.340933,48.846508,0 2.341161,48.846088,0 2.341931,48.844528,0 2.3422,48.844009,0 2.3422,48.844009,0 2.342546,48.843277,0 2.342915,48.842575,0 2.3434,48.84161,0 2.3434,48.84161,0 2.343505,48.841404,0 2.343592,48.84127,0 2.343682,48.841198,0 2.343732,48.841171,0 2.345189,48.840618,0 2.345902,48.84034,0 2.346002,48.840279,0 2.345923,48.839844,0 2.345923,48.839844,0 2.345624,48.838276,0 2.345525,48.837677,0 2.345505,48.837498,0 2.345438,48.837261,0 2.345438,48.837261,0 2.345142,48.835762,0 2.344887,48.8344,0 2.344887,48.8344,0 2.344561,48.832676,0 2.344561,48.832676,0 2.344279,48.831207,0 2.344211,48.83099,0 2.344139,48.830811,0 2.343999,48.830421,0 2.343999,48.830421,0 2.343949,48.830315,0 2.343845,48.830124,0 2.343373,48.829277,0 2.343179,48.828968,0 2.342999,48.828831,0 2.34292,48.828796,0 2.342766,48.828762,0 2.342308,48.828781,0 2.342308,48.828781,0 2.341512,48.828819,0 2.341599,48.828354,0 2.341633,48.828094,0 2.341649,48.827862,0 2.341602,48.826694,0 2.341578,48.826385,0 2.341534,48.826275,0 2.341437,48.826157,0 2.341126,48.825836,0 2.341126,48.825836,0 2.339889,48.824631,0 2.339899,48.824554,0 2.339986,48.824299,0 2.339986,48.824299,0 2.341027,48.821453,0 2.341027,48.821453,0 2.341122,48.821228,0 2.341155,48.821171,0 2.341613,48.819946,0 2.341657,48.819809,0 2.341619,48.819679,0 2.343061,48.819511,0</coordinates>
        </LineString>
      </Placemark>
    </Folder>
    <Folder>
      <name>Arrêts</name>
      <Placemark>
        <name>Gare Saint-Lazare - Havre</name>
        <styleUrl>#stop_style</styleUrl>
        <Point>
          <coordinates>2.3266249516448707,48.87500099923756,0</coordinates>
        </Point>
      </Placemark>
      <Placemark>
        <name>Luxembourg</name>
        <styleUrl>#stop_style</styleUrl>
        <Point>
          <coordinates>2.340824451416628,48.84648973309117,0</coordinates>
        </Point>
      </Placemark>
      <Placemark>
        <name>Stade Charléty - Porte de Gentilly</name>
        <styleUrl>#stop_style</styleUrl>
        <Point>
          <coordinates>2.343056142264446,48.81970974721032,0</coordinates>
        </Point>
      </Placemark>
      <Placemark>
        <name>Amiral Mouchez - Charbonnel</name>
        <styleUrl>#stop_style</styleUrl>
        <Point>
          <coordinates>2.3419466665899162,48.82236581356483,0</coordinates>
        </Point>
      </Placemark>
      <Placemark>
        <name>Saint-Michel - Saint-Germain</name>
        <styleUrl>#stop_style</styleUrl>
        <Point>
          <coordinates>2.3444150465825353,48.853533442477186,0</coordinates>
        </Point>
      </Placemark>
      <Placemark>
        <name>Cité - Palais de Justice</name>
        <styleUrl>#stop_style</styleUrl>
        <Point>
          <coordinates>2.3463634081114604,48.855747517241156,0</coordinates>
        </Point>
      </Placemark>
      <Placemark>
        <name>Rivoli - Pont Neuf</name>
        <styleUrl>#stop_style</styleUrl>
        <Point>
          <coordinates>2.3444998385272164,48.85979339582252,0</coordinates>
        </Point>
      </Placemark>
      <Placemark>
        <name>Place de Clichy</name>
        <styleUrl>#stop_style</styleUrl>
        <Point>
          <coordinates>2.3278182046656113,48.88290386965311,0</coordinates>
        </Point>
      </Placemark>
      <Placemark>
        <name>Porte de Saint-Ouen</name>
        <styleUrl>#stop_style</styleUrl>
        <Point>
          <coordinates>2.3293412178676056,48.89805705604687,0</coordinates>
        </Point>
      </Placemark>
      <Placemark>
        <name>Porte de Saint-Ouen - Hôpital Bichat</name>
        <styleUrl>#stop_style</styleUrl>
        <Point>
          <coordinates>2.3296375505986853,48.89940769353215,0</coordinates>
        </Point>
      </Placemark>
      <Placemark>
        <name>Guy Môquet</name>
        <styleUrl>#stop_style</styleUrl>
        <Point>
          <coordinates>2.3271749328351397,48.89258602093059,0</coordinates>
        </Point>
      </Placemark>
      <Placemark>
        <name>Ganneron</name>
        <styleUrl>#stop_style</styleUrl>
        <Point>
          <coordinates>2.3261412480860266,48.88604210121807,0</coordinates>
        </Point>
      </Placemark>
      <Placemark>
        <name>Bucarest</name>
        <styleUrl>#stop_style</styleUrl>
        <Point>
          <coordinates>2.3249245110684513,48.881016975426654,0</coordinates>
        </Point>
      </Placemark>
      <Placemark>
        <name>Europe</name>
        <styleUrl>#stop_style</styleUrl>
        <Point>
          <coordinates>2.323848935669844,48.87878954840584,0</coordinates>
        </Point>
      </Placemark>
      <Placemark>
        <name>Auber</name>
        <styleUrl>#stop_style</styleUrl>
        <Point>
          <coordinates>2.329454716971651,48.87230087870925,0</coordinates>
        </Point>
      </Placemark>
      <Placemark>
        <name>Glacière - Nordmann</name>
        <styleUrl>#stop_style</styleUrl>
        <Point>
          <coordinates>2.3444593718009905,48.83267746214198,0</coordinates>
        </Point>
      </Placemark>
      <Placemark>
        <name>Glacière - Auguste Blanqui</name>
        <styleUrl>#stop_style</styleUrl>
        <Point>
          <coordinates>2.3438465257178773,48.83049762107603,0</coordinates>
        </Point>
      </Placemark>
      <Placemark>
        <name>Glacière - Tolbiac</name>
        <styleUrl>#stop_style</styleUrl>
        <Point>
          <coordinates>2.341044088028773,48.825886406432765,0</coordinates>
        </Point>
      </Placemark>
      <Placemark>
        <name>Berthollet - Vauquelin</name>
        <styleUrl>#stop_style</styleUrl>
        <Point>
          <coordinates>2.34539516148003,48.840606018768014,0</coordinates>
        </Point>
      </Placemark>
      <Placemark>
        <name>Pyramides</name>
        <styleUrl>#stop_style</styleUrl>
        <Point>
          <coordinates>2.334442959262386,48.86602432653653,0</coordinates>
        </Point>
      </Placemark>
      <Placemark>
        <name>Davy</name>
        <styleUrl>#stop_style</styleUrl>
        <Point>
          <coordinates>2.326591124203604,48.89027147344886,0</coordinates>
        </Point>
      </Placemark>
      <Placemark>
        <name>Palais Royal - Comédie Française</name>
        <styleUrl>#stop_style</styleUrl>
        <Point>
          <coordinates>2.3349583524288247,48.86409359773014,0</coordinates>
        </Point>
      </Placemark>
      <Placemark>
        <name>Saint-Honoré - Valois</name>
        <styleUrl>#stop_style</styleUrl>
        <Point>
          <coordinates>2.3385250767419943,48.86231467012214,0</coordinates>
        </Point>
      </Placemark>
      <Placemark>
        <name>Pont Neuf - Quai du Louvre</name>
        <styleUrl>#stop_style</styleUrl>
        <Point>
          <coordinates>2.341516414243645,48.858589874546006,0</coordinates>
        </Point>
      </Placemark>
      <Placemark>
        <name>Les Ecoles</name>
        <styleUrl>#stop_style</styleUrl>
        <Point>
          <coordinates>2.342146497881033,48.84970772154837,0</coordinates>
        </Point>
      </Placemark>
      <Placemark>
        <name>Cité Universitaire</name>
        <styleUrl>#stop_style</styleUrl>
        <Point>
          <coordinates>2.3409494005421077,48.82152389787098,0</coordinates>
        </Point>
      </Placemark>
      <Placemark>
        <name>Parc Montsouris</name>
        <styleUrl>#stop_style</styleUrl>
        <Point>
          <coordinates>2.341620693225345,48.824450578296634,0</coordinates>
        </Point>
      </Placemark>
      <Placemark>
        <name>Glacière - Arago</name>
        <styleUrl>#stop_style</styleUrl>
        <Point>
          <coordinates>2.345107600954975,48.83529818018797,0</coordinates>
        </Point>
      </Placemark>
      <Placemark>
        <name>Petits Champs - Danielle Casanova</name>
        <styleUrl>#stop_style</styleUrl>
        <Point>
          <coordinates>2.333501734687616,48.868204495661466,0</coordinates>
        </Point>
      </Placemark>
      <Placemark>
        <name>La Fourche</name>
        <styleUrl>#stop_style</styleUrl>
        <Point>
          <coordinates>2.3259236854712064,48.888100339661364,0</coordinates>
        </Point>
      </Placemark>
      <Placemark>
        <name>Navier</name>
        <styleUrl>#stop_style</styleUrl>
        <Point>
          <coordinates>2.328271830974491,48.895308134452385,0</coordinates>
        </Point>
      </Placemark>
      <Placemark>
        <name>Gare Saint-Lazare - Budapest</name>
        <styleUrl>#stop_style</styleUrl>
        <Point>
          <coordinates>2.3268190227837757,48.876863720177134,0</coordinates>
        </Point>
      </Placemark>
      <Placemark>
        <name>Havre - Haussmann</name>
        <styleUrl>#stop_style</styleUrl>
        <Point>
          <coordinates>2.327861514202696,48.873209270299675,0</coordinates>
        </Point>
      </Placemark>
      <Placemark>
        <name>Opéra</name>
        <styleUrl>#stop_style</styleUrl>
        <Point>
          <coordinates>2.331583560340747,48.871080688381355,0</coordinates>
        </Point>
      </Placemark>
      <Placemark>
        <name>Louvre - Rivoli</name>
        <styleUrl>#stop_style</styleUrl>
        <Point>
          <coordinates>2.3404703410103087,48.860472748583646,0</coordinates>
        </Point>
      </Placemark>
      <Placemark>
        <name>Saint-Jacques - Gay-Lussac</name>
        <styleUrl>#stop_style</styleUrl>
        <Point>
          <coordinates>2.342167372176817,48.843736085267174,0</coordinates>
        </Point>
      </Placemark>
      <Placemark>
        <name>Daviel</name>
        <styleUrl>#stop_style</styleUrl>
        <Point>
          <coordinates>2.342328279013871,48.828825440357434,0</coordinates>
        </Point>
      </Placemark>
      <Placemark>
        <name>Port Royal - Berthollet</name>
        <styleUrl>#stop_style</styleUrl>
        <Point>
          <coordinates>2.345606036779012,48.83791806883721,0</coordinates>
        </Point>
      </Placemark>
      <Placemark>
        <name>Feuillantines</name>
        <styleUrl>#stop_style</styleUrl>
        <Point>
          <coordinates>2.3435019951854335,48.84162991313767,0</coordinates>
        </Point>
      </Placemark>
      <Placemark>
        <name>Opéra - 4 Septembre</name>
        <styleUrl>#stop_style</styleUrl>
        <Point>
          <coordinates>2.3327852239111295,48.86986428798215,0</coordinates>
        </Point>
      </Placemark>
      <Placemark>
        <name>Châtelet</name>
        <styleUrl>#stop_style</styleUrl>
        <Point>
          <coordinates>2.346302440859627,48.85734803033339,0</coordinates>
        </Point>
      </Placemark>
      <Placemark>
        <name>Rivoli - Châtelet</name>
        <styleUrl>#stop_style</styleUrl>
        <Point>
          <coordinates>2.3468127604986,48.85904159573065,0</coordinates>
        </Point>
      </Placemark>
      <Placemark>
        <name>Palais Royal - Musée du Louvre</name>
        <styleUrl>#stop_style</styleUrl>
        <Point>
          <coordinates>2.337573615859602,48.862102557345764,0</coordinates>
        </Point>
      </Placemark>
      <Placemark>
        <name>Haussmann - Mogador</name>
        <styleUrl>#stop_style</styleUrl>
        <Point>
          <coordinates>2.3313674403759075,48.87411025763486,0</coordinates>
        </Point>
      </Placemark>
      <Placemark>
        <name>Trinité</name>
        <styleUrl>#stop_style</styleUrl>
        <Point>
          <coordinates>2.33075707239642,48.87704768127846,0</coordinates>
        </Point>
      </Placemark>
      <Placemark>
        <name>Liège</name>
        <styleUrl>#stop_style</styleUrl>
        <Point>
          <coordinates>2.32934810719011,48.879521962740085,0</coordinates>
        </Point>
      </Placemark>
    </Folder>
  </Document>
</kml>