<?xml version='1.0' encoding='UTF-8'?>
<kml xmlns="http://www.opengis.net/kml/2.2">
  <Document>
    <name>Bus R2S - R2 Sud</name>
    <description>Transdev Boucle des Lys</description>
    <Style id="line_style">
      <LineStyle>
        <color>ffC85500</color>
        <width>3</width>
      </LineStyle>
    </Style>
    <Style id="stop_style">
      <IconStyle>
        <color>ffC85500</color>
        <scale>0.6</scale>
        <Icon>
          <href>https://maps.google.com/mapfiles/kml/shapes/bus.png</href>
        </Icon>
      </IconStyle>
    </Style>
    <Folder>
      <name>Tracé</name>
      <Placemark>
        <name>R2S</name>
        <styleUrl>#line_style</styleUrl>
        <LineString>
          <tessellate>1</tessellate>
          <coordinates>2.093788,48.899345,0 2.093637,48.899345,0 2.093636,48.899212,0 2.09354,48.8992,0 2.09356,48.898155,0 2.093565,48.898117,0 2.093583,48.898067,0 2.093629,48.898026,0 2.093689,48.898003,0 2.094622,48.897938,0 2.094776,48.897884,0 2.094838,48.897839,0 2.094906,48.897755,0 2.094999,48.897491,0 2.095071,48.897411,0 2.095284,48.897285,0 2.095929,48.896729,0 2.095965,48.896626,0 2.095959,48.896507,0 2.095895,48.896294,0 2.095626,48.895561,0 2.095544,48.895351,0 2.095487,48.895176,0 2.095487,48.895176,0 2.095454,48.895077,0 2.095441,48.895,0 2.095443,48.894939,0 2.095398,48.894791,0 2.095412,48.894688,0 2.095674,48.894279,0 2.096095,48.893494,0 2.096247,48.893028,0 2.096447,48.892117,0 2.096464,48.89201,0 2.096607,48.891415,0 2.096607,48.891415,0 2.096653,48.891224,0 2.096943,48.89035,0 2.09705,48.889977,0 2.096541,48.889992,0 2.096033,48.890022,0 2.093384,48.890232,0 2.093216,48.890266,0 2.092366,48.890503,0 2.091259,48.890827,0 2.089926,48.891197,0 2.089684,48.891289,0 2.089427,48.891575,0 2.089382,48.891651,0 2.089292,48.891758,0 2.089292,48.891758,0 2.089058,48.892014,0 2.08898,48.892075,0 2.088376,48.892765,0 2.088001,48.893063,0 2.087859,48.893162,0 2.087615,48.893177,0 2.086796,48.893124,0 2.08669,48.893139,0 2.086176,48.89336,0 2.08595,48.893433,0 2.085626,48.893501,0 2.084923,48.893585,0 2.084923,48.893585,0 2.084734,48.893593,0 2.084571,48.893574,0 2.084632,48.893669,0 2.084651,48.893776,0 2.084613,48.893898,0 2.084532,48.894039,0 2.084414,48.894119,0 2.084332,48.894203,0 2.084167,48.894333,0 2.083977,48.894428,0 2.083107,48.894707,0 2.083107,48.894707,0 2.082899,48.894768,0 2.082633,48.894871,0 2.082023,48.895149,0 2.081421,48.89547,0 2.08139,48.895538,0 2.081124,48.895477,0 2.080417,48.895157,0 2.080216,48.8951,0 2.079982,48.895065,0 2.079524,48.895035,0 2.079524,48.895035,0 2.079365,48.895039,0 2.079178,48.895054,0 2.078946,48.895103,0 2.078765,48.895161,0 2.078622,48.895222,0 2.078467,48.895321,0 2.078348,48.895432,0 2.078264,48.895519,0 2.078213,48.895596,0 2.078096,48.895794,0 2.077736,48.896458,0 2.077634,48.896591,0 2.077575,48.896652,0 2.077443,48.896736,0 2.077365,48.896774,0 2.077209,48.896824,0 2.076967,48.896851,0 2.076277,48.896915,0 2.075896,48.896961,0 2.075398,48.897041,0 2.074799,48.897125,0 2.074799,48.897125,0 2.074711,48.897137,0 2.073549,48.897377,0 2.073411,48.897419,0 2.073085,48.897499,0 2.073,48.897511,0 2.072278,48.897552,0 2.072004,48.897591,0 2.071748,48.897675,0 2.071341,48.897793,0 2.070961,48.897881,0 2.070942,48.897812,0 2.070883,48.897655,0 2.070664,48.897198,0 2.070383,48.896717,0 2.070383,48.896717,0 2.070234,48.896446,0 2.070137,48.89632,0 2.070227,48.896236,0 2.070347,48.896202,0 2.071012,48.896046,0 2.071195,48.896027,0 2.071656,48.895916,0 2.072514,48.895657,0 2.072479,48.895546,0 2.072374,48.89534,0 2.07225,48.895054,0 2.072097,48.89463,0 2.072026,48.894394,0 2.071936,48.89394,0 2.071897,48.893616,0 2.071851,48.892925,0 2.071863,48.892529,0 2.071863,48.892529,0 2.071872,48.892262,0 2.071834,48.892181,0 2.071797,48.892143,0 2.071762,48.892128,0 2.071556,48.892113,0 2.071269,48.89209,0 2.071124,48.892067,0 2.070735,48.891994,0 2.070351,48.891872,0 2.070191,48.891808,0 2.070033,48.891731,0 2.069189,48.891247,0 2.069189,48.891247,0 2.068857,48.891052,0 2.068144,48.890644,0 2.067921,48.890537,0 2.067729,48.89045,0 2.067521,48.890366,0 2.067346,48.890308,0 2.067106,48.890244,0 2.066843,48.89019,0 2.066562,48.890156,0 2.066371,48.890144,0 2.066332,48.890137,0 2.066314,48.890125,0 2.066205,48.890015,0 2.065557,48.890278,0 2.065557,48.890278,0 2.065232,48.890404,0 2.06464,48.890682,0 2.063748,48.891186,0 2.063726,48.891254,0 2.063656,48.891354,0 2.063563,48.891434,0 2.063438,48.891514,0 2.062218,48.892136,0 2.062128,48.8922,0 2.062002,48.89233,0 2.061932,48.892704,0 2.061904,48.893002,0 2.061899,48.893078,0 2.061924,48.89333,0 2.062022,48.893639,0 2.062191,48.893898,0 2.062192,48.893921,0 2.062263,48.893925,0 2.062318,48.893955,0 2.062332,48.893974,0 2.062335,48.893997,0 2.062327,48.89402,0 2.062308,48.894043,0 2.062281,48.894058,0 2.06233,48.894096,0 2.062438,48.894226,0 2.062438,48.894226,0 2.06252,48.894321,0 2.06262,48.894413,0 2.062886,48.894703,0 2.063003,48.894791,0 2.063342,48.894962,0 2.063779,48.895199,0 2.063896,48.895294,0 2.063936,48.895363,0 2.063956,48.895493,0 2.063905,48.895588,0 2.063787,48.895687,0 2.06353,48.895832,0 2.063307,48.895924,0 2.062726,48.896084,0 2.062636,48.896126,0 2.062483,48.896233,0 2.062405,48.896351,0 2.062372,48.896526,0 2.06238,48.896729,0 2.062439,48.896946,0 2.062522,48.897186,0 2.062769,48.897766,0 2.062798,48.897968,0 2.062799,48.898109,0 2.06277,48.898247,0 2.06277,48.898247,0 2.062722,48.898502,0 2.06377,48.89846,0 2.064543,48.898483,0 2.066091,48.898655,0 2.066091,48.898655,0 2.067032,48.898762,0 2.069915,48.899113,0 2.069915,48.899113,0 2.070213,48.899151,0 2.070327,48.899181,0 2.0704,48.899216,0 2.070455,48.899254,0 2.070495,48.899303,0 2.070518,48.899452,0 2.07034,48.899445,0 2.069625,48.899448,0 2.069262,48.899467,0 2.068805,48.899513,0 2.068079,48.899616,0 2.068088,48.899654,0 2.068062,48.899769,0 2.06783,48.900124,0 2.067274,48.901035,0 2.067251,48.901089,0 2.067636,48.901108,0 2.068331,48.901154,0 2.068331,48.901154,0 2.072159,48.901402,0 2.072159,48.901402,0 2.073927,48.901516,0 2.073975,48.902752,0 2.074355,48.902763,0 2.074741,48.902607,0 2.074741,48.902607,0 2.076954,48.901714,0 2.077699,48.901756,0 2.077699,48.901756,0 2.083823,48.902149,0 2.083823,48.902149,0 2.085355,48.902248,0 2.085616,48.902256,0 2.085716,48.902298,0 2.085912,48.902145,0 2.086382,48.901833,0 2.08733,48.901138,0 2.087789,48.900745,0 2.087789,48.900745,0 2.087917,48.900608,0 2.088104,48.900368,0 2.088184,48.90028,0 2.089114,48.899639,0 2.089242,48.899555,0 2.089606,48.899391,0 2.090075,48.899193,0 2.090075,48.899193,0 2.090647,48.898956,0 2.091073,48.898754,0 2.091422,48.898602,0 2.091709,48.898495,0 2.091846,48.898464,0 2.092539,48.898182,0 2.092539,48.898182,0 2.093214,48.897907,0 2.093262,48.897873,0 2.093334,48.897865,0 2.09342,48.897877,0 2.093719,48.897953,0 2.093965,48.897984,0 2.094622,48.897938,0 2.094761,48.897964,0 2.09485,48.898029,0 2.094816,48.898426,0 2.094686,48.89851,0 2.09466,48.898987,0</coordinates>
        </LineString>
      </Placemark>
    </Folder>
    <Folder>
      <name>Arrêts</name>
      <Placemark>
        <name>Réservoir</name>
        <styleUrl>#stop_style</styleUrl>
        <Point>
          <coordinates>2.06256156377174,48.894287334434324,0</coordinates>
        </Point>
      </Placemark>
      <Placemark>
        <name>Croix de Fer</name>
        <styleUrl>#stop_style</styleUrl>
        <Point>
          <coordinates>2.0699507281698426,48.89906654168321,0</coordinates>
        </Point>
      </Placemark>
      <Placemark>
        <name>Rue Saint-Louis</name>
        <styleUrl>#stop_style</styleUrl>
        <Point>
          <coordinates>2.095390350909489,48.895178365393775,0</coordinates>
        </Point>
      </Placemark>
      <Placemark>
        <name>Debussy</name>
        <styleUrl>#stop_style</styleUrl>
        <Point>
          <coordinates>2.096547715732118,48.89136486559579,0</coordinates>
        </Point>
      </Placemark>
      <Placemark>
        <name>Gaudines</name>
        <styleUrl>#stop_style</styleUrl>
        <Point>
          <coordinates>2.0718007298135155,48.89247066374541,0</coordinates>
        </Point>
      </Placemark>
      <Placemark>
        <name>Mairie</name>
        <styleUrl>#stop_style</styleUrl>
        <Point>
          <coordinates>2.065537585007164,48.89034444020364,0</coordinates>
        </Point>
      </Placemark>
      <Placemark>
        <name>Gare de Saint-Germain-en-Laye</name>
        <styleUrl>#stop_style</styleUrl>
        <Point>
          <coordinates>2.094588526727687,48.898931576292874,0</coordinates>
        </Point>
      </Placemark>
      <Placemark>
        <name>Place Sainte-Catherine</name>
        <styleUrl>#stop_style</styleUrl>
        <Point>
          <coordinates>2.0849148261347756,48.893632833486095,0</coordinates>
        </Point>
      </Placemark>
      <Placemark>
        <name>Marie Curie</name>
        <styleUrl>#stop_style</styleUrl>
        <Point>
          <coordinates>2.0703079459759275,48.89663207787833,0</coordinates>
        </Point>
      </Placemark>
      <Placemark>
        <name>Taillevent</name>
        <styleUrl>#stop_style</styleUrl>
        <Point>
          <coordinates>2.0691217677685994,48.891262719785935,0</coordinates>
        </Point>
      </Placemark>
      <Placemark>
        <name>Vieille Butte</name>
        <styleUrl>#stop_style</styleUrl>
        <Point>
          <coordinates>2.066193779363169,48.89862360608958,0</coordinates>
        </Point>
      </Placemark>
      <Placemark>
        <name>Mermoz</name>
        <styleUrl>#stop_style</styleUrl>
        <Point>
          <coordinates>2.0839335699389085,48.90211517376737,0</coordinates>
        </Point>
      </Placemark>
      <Placemark>
        <name>République</name>
        <styleUrl>#stop_style</styleUrl>
        <Point>
          <coordinates>2.0925570923122336,48.89808880271139,0</coordinates>
        </Point>
      </Placemark>
      <Placemark>
        <name>Caraman</name>
        <styleUrl>#stop_style</styleUrl>
        <Point>
          <coordinates>2.0794199052212874,48.895074646204634,0</coordinates>
        </Point>
      </Placemark>
      <Placemark>
        <name>Boufflers</name>
        <styleUrl>#stop_style</styleUrl>
        <Point>
          <coordinates>2.074868020143368,48.89716203444985,0</coordinates>
        </Point>
      </Placemark>
      <Placemark>
        <name>Village d'Hennemont - Lycée International</name>
        <styleUrl>#stop_style</styleUrl>
        <Point>
          <coordinates>2.062816675805019,48.89830044061265,0</coordinates>
        </Point>
      </Placemark>
      <Placemark>
        <name>Grande Ceinture</name>
        <styleUrl>#stop_style</styleUrl>
        <Point>
          <coordinates>2.0721198607572506,48.90134972266913,0</coordinates>
        </Point>
      </Placemark>
      <Placemark>
        <name>Jehan Alain</name>
        <styleUrl>#stop_style</styleUrl>
        <Point>
          <coordinates>2.0877235434431687,48.90069615750782,0</coordinates>
        </Point>
      </Placemark>
      <Placemark>
        <name>Les Écuyers</name>
        <styleUrl>#stop_style</styleUrl>
        <Point>
          <coordinates>2.090001097085316,48.8991666105892,0</coordinates>
        </Point>
      </Placemark>
      <Placemark>
        <name>Diderot</name>
        <styleUrl>#stop_style</styleUrl>
        <Point>
          <coordinates>2.08933933398171,48.891768931478246,0</coordinates>
        </Point>
      </Placemark>
      <Placemark>
        <name>Jaurès</name>
        <styleUrl>#stop_style</styleUrl>
        <Point>
          <coordinates>2.083094546771245,48.89476108517569,0</coordinates>
        </Point>
      </Placemark>
      <Placemark>
        <name>Ecole Normale</name>
        <styleUrl>#stop_style</styleUrl>
        <Point>
          <coordinates>2.0683999459224345,48.90111399540786,0</coordinates>
        </Point>
      </Placemark>
      <Placemark>
        <name>Carnot</name>
        <styleUrl>#stop_style</styleUrl>
        <Point>
          <coordinates>2.0747586514535743,48.90254828009872,0</coordinates>
        </Point>
      </Placemark>
      <Placemark>
        <name>Square Forest</name>
        <styleUrl>#stop_style</styleUrl>
        <Point>
          <coordinates>2.078019772417462,48.90173703755362,0</coordinates>
        </Point>
      </Placemark>
    </Folder>
  </Document>
</kml>